$GPZDA,151025.00,21,02,2014,00,00*62
$GPGGA,151025,5225.9654,N,00401.1646,W,1,08,1.20,38.00,M,51.628,M,,*64
$GPRMC,151025,A,5225.9654,N,00401.1646,W,0.0000,0.000,210214,,*37
$GPGSA,A,3,05,09,26,08,28,07,15,21,,,,,2.6,1.2,1.9*37
$GPGSV,3,1,10,08,51,058,33,09,55,063,32,28,43,111,35,26,80,301,37*76
$GPGSV,3,2,10,24,05,234,28,05,53,190,38,07,18,057,28,15,40,283,35*7C
$GPGSV,3,3,10,21,18,304,22,18,05,318,28*79
$GPZDA,151026.00,21,02,2014,00,00*61
$GPGGA,151026,5225.9654,N,00401.1646,W,1,08,1.20,38.00,M,51.628,M,,*67
$GPRMC,151026,A,5225.9654,N,00401.1646,W,0.0000,0.000,210214,,*34
$GPGSA,A,3,05,09,26,08,28,07,15,21,,,,,2.6,1.2,1.9*37
$GPZDA,151027.00,21,02,2014,00,00*60
$GPGGA,151027,5225.9654,N,00401.1646,W,1,08,1.20,38.00,M,51.628,M,,*66
$GPRMC,151027,A,5225.9654,N,00401.1646,W,0.0000,0.000,210214,,*35
$GPGSA,A,3,05,09,26,08,28,07,15,21,,,,,2.6,1.2,1.9*37
$GPZDA,151028.00,21,02,2014,00,00*6F
$GPGGA,151028,5225.9653,N,00401.1655,W,1,08,1.20,38.04,M,51.628,M,,*68
$GPRMC,151028,A,5225.9653,N,00401.1655,W,0.0000,0.000,210214,,*3F
$GPGSA,A,3,05,09,26,08,28,07,15,21,,,,,2.6,1.2,1.9*37
$GPGSV,3,1,10,08,51,058,33,09,55,063,33,28,43,111,35,26,80,301,37*77
$GPGSV,3,2,10,24,05,234,28,05,53,190,37,07,18,057,28,15,40,283,35*73
$GPGSV,3,3,10,21,18,304,23,18,05,318,28*78
$GPZDA,151029.00,21,02,2014,00,00*6E
$GPGGA,151029,5225.9653,N,00401.1655,W,1,08,1.20,38.04,M,51.628,M,,*69
$GPRMC,151029,A,5225.9653,N,00401.1655,W,0.0000,0.000,210214,,*3E
$GPGSA,A,3,05,09,26,08,28,07,15,21,,,,,2.6,1.2,1.9*37
$GPZDA,151030.00,21,02,2014,00,00*66
$GPGGA,151030,5225.9654,N,00401.1646,W,1,08,1.20,38.00,M,51.628,M,,*60
$GPRMC,151030,A,5225.9654,N,00401.1646,W,0.3150,124.550,210214,,*33
$GPGSA,A,3,05,09,26,08,28,07,15,21,,,,,2.6,1.2,1.9*37
$GPZDA,151031.00,21,02,2014,00,00*67
$GPGGA,151031,5225.9653,N,00401.1655,W,1,08,1.20,38.04,M,51.628,M,,*60
$GPRMC,151031,A,5225.9653,N,00401.1655,W,0.0000,0.000,210214,,*37
$GPGSA,A,3,05,09,26,08,28,07,15,21,,,,,2.6,1.2,1.9*37
$GPGSV,3,1,10,08,51,058,33,09,55,063,32,28,43,111,34,26,80,301,37*77
$GPGSV,3,2,10,24,05,234,28,05,53,190,37,07,18,057,27,15,40,283,35*7C
$GPGSV,3,3,10,21,18,304,22,18,05,318,28*79
$GPZDA,151032.00,21,02,2014,00,00*64
$GPGGA,151032,5225.9653,N,00401.1655,W,1,09,1.00,38.04,M,51.628,M,,*60
$GPRMC,151032,A,5225.9653,N,00401.1655,W,0.5947,231.861,210214,,*34
$GPGSA,A,3,05,09,26,08,28,07,15,21,24,,,,2.6,1.0,1.9*33
$GPZDA,151033.00,21,02,2014,00,00*65
$GPGGA,151033,5225.9646,N,00401.1663,W,1,09,1.00,37.90,M,51.628,M,,*62
$GPRMC,151033,A,5225.9646,N,00401.1663,W,2.1842,228.210,210214,,*32
$GPGSA,A,3,05,09,26,08,28,07,15,21,24,,,,2.6,1.0,1.9*33
$GPGBS,151033,19.17,M,17.30,M,44.45,M*01
$GPZDA,151034.00,21,02,2014,00,00*62
$GPGGA,151034,5225.9638,N,00401.1671,W,1,09,1.00,37.76,M,51.628,M,,*67
$GPRMC,151034,A,5225.9638,N,00401.1671,W,4.7165,223.106,210214,,*3C
$GPGSA,A,3,05,09,26,08,28,07,15,21,24,,,,2.6,1.0,1.9*33
$GPGBS,151034,19.17,M,17.30,M,44.45,M*06
$GPGSV,3,1,10,08,51,058,28,09,55,063,31,28,43,111,34,26,80,301,37*7E
$GPGSV,3,2,10,24,05,234,22,05,53,190,36,07,18,057,15,15,40,283,35*76
$GPGSV,3,3,10,21,18,304,23,18,05,318,28*78
$GPZDA,151035.00,21,02,2014,00,00*63
$GPGGA,151035,5225.9625,N,00401.1696,W,1,09,1.00,38.31,M,51.628,M,,*6F
$GPRMC,151035,A,5225.9625,N,00401.1696,W,7.6098,224.169,210214,,*37
$GPGSA,A,3,05,09,26,08,28,07,15,21,24,,,,2.6,1.0,1.9*33
$GPZDA,151036.00,21,02,2014,00,00*60
$GPGGA,151036,5225.9609,N,00401.1722,W,1,09,1.00,38.07,M,51.628,M,,*69
$GPRMC,151036,A,5225.9609,N,00401.1722,W,8.5235,224.539,210214,,*3C
$GPGSA,A,3,05,09,26,08,28,07,15,21,24,,,,2.6,1.0,1.9*33
$GPZDA,151037.00,21,02,2014,00,00*61
$GPGGA,151037,5225.9588,N,00401.1755,W,1,09,1.00,38.48,M,51.628,M,,*69
$GPRMC,151037,A,5225.9588,N,00401.1755,W,8.2967,226.271,210214,,*35
$GPGSA,A,3,05,09,26,08,28,07,15,21,24,,,,2.6,1.0,1.9*33
$GPGSV,3,1,10,08,51,058,28,09,55,063,32,28,43,111,29,26,80,301,38*7E
$GPGSV,3,2,10,24,05,234,27,05,53,190,34,07,18,057,25,15,40,283,36*71
$GPGSV,3,3,10,21,18,304,22,18,05,318,23*72
$GPZDA,151038.00,21,02,2014,00,00*6E
$GPGGA,151038,5225.9575,N,00401.1789,W,1,09,1.00,39.07,M,51.628,M,,*6F
$GPRMC,151038,A,5225.9575,N,00401.1789,W,9.6688,227.893,210214,,*35
$GPGSA,A,3,05,09,26,08,28,07,15,21,24,,,,2.6,1.0,1.9*33
$GPZDA,151039.00,21,02,2014,00,00*6F
$GPGGA,151039,5225.9555,N,00401.1822,W,1,09,1.00,39.48,M,51.628,M,,*69
$GPRMC,151039,A,5225.9555,N,00401.1822,W,11.4354,232.689,210214,,*06
$GPGSA,A,3,05,09,26,08,28,07,15,21,24,,,,2.6,1.0,1.9*33
$GPZDA,151040.00,21,02,2014,00,00*61
$GPGGA,151040,5225.9535,N,00401.1874,W,1,09,1.00,38.58,M,51.628,M,,*62
$GPRMC,151040,A,5225.9535,N,00401.1874,W,13.4601,236.907,210214,,*07
$GPGSA,A,3,05,09,26,08,28,07,15,21,24,,,,2.6,1.0,1.9*33
$GPGSV,3,1,10,08,51,058,28,09,55,063,31,28,43,111,31,26,80,301,38*74
$GPGSV,3,2,10,24,05,234,27,05,53,190,36,07,18,057,24,15,40,283,36*72
$GPGSV,3,3,10,21,18,304,13,18,05,318,22*71
$GPZDA,151041.00,21,02,2014,00,00*60
$GPGGA,151041,5225.9513,N,00401.1934,W,1,09,1.00,39.12,M,51.628,M,,*6D
$GPRMC,151041,A,5225.9513,N,00401.1934,W,16.1704,237.463,210214,,*0D
$GPGSA,A,3,05,09,26,08,28,07,15,21,24,,,,2.6,1.0,1.9*33
$GPZDA,151042.00,21,02,2014,00,00*63
$GPGGA,151042,5225.9484,N,00401.2001,W,1,08,1.20,39.51,M,51.628,M,,*69
$GPRMC,151042,A,5225.9484,N,00401.2001,W,17.2081,234.728,210214,,*0A
$GPGSA,A,3,05,09,26,08,28,07,15,24,,,,,2.6,1.2,1.9*32
$GPZDA,151043.00,21,02,2014,00,00*62
$GPGGA,151043,5225.9455,N,00401.2061,W,1,09,1.00,39.87,M,51.629,M,,*6B
$GPRMC,151043,A,5225.9455,N,00401.2061,W,16.3888,231.466,210214,,*0C
$GPGSA,A,3,05,09,26,08,28,07,15,21,24,,,,2.6,1.0,1.9*33
$GPGSV,3,1,10,08,51,058,28,09,55,063,31,28,43,111,31,26,80,301,38*74
$GPGSV,3,2,10,24,05,234,28,05,53,190,36,07,18,057,22,15,40,283,37*7A
$GPGSV,3,3,10,21,18,304,25,18,05,318,17*72
$GPZDA,151044.00,21,02,2014,00,00*65
$GPGGA,151044,5225.9423,N,00401.2111,W,1,09,1.00,39.39,M,51.629,M,,*6E
$GPRMC,151044,A,5225.9423,N,00401.2111,W,16.1227,228.412,210214,,*0A
$GPGSA,A,3,05,09,26,08,28,07,15,21,24,,,,2.6,1.0,1.9*33
$GPZDA,151045.00,21,02,2014,00,00*64
$GPGGA,151045,5225.9394,N,00401.2170,W,1,09,1.00,39.74,M,51.629,M,,*6A
$GPRMC,151045,A,5225.9394,N,00401.2170,W,17.0084,224.828,210214,,*05
$GPGSA,A,3,05,09,26,08,28,07,15,21,24,,,,2.6,1.0,1.9*33
$GPGBS,151045,19.17,M,17.30,M,44.45,M*00
$GPZDA,151046.00,21,02,2014,00,00*67
$GPGGA,151046,5225.9358,N,00401.2220,W,1,09,1.00,39.87,M,51.629,M,,*63
$GPRMC,151046,A,5225.9358,N,00401.2220,W,17.8867,222.926,210214,,*04
$GPGSA,A,3,05,09,26,08,28,07,15,21,24,,,,2.6,1.0,1.9*33
$GPGBS,151046,19.17,M,17.30,M,44.45,M*03
$GPGSV,3,1,10,08,51,058,28,09,55,061,34,28,43,111,32,26,80,303,38*72
$GPGSV,3,2,10,24,05,234,28,05,53,190,35,07,18,057,18,15,40,283,37*70
$GPGSV,3,3,10,21,18,304,25,18,05,318,26*70
$GPZDA,151047.00,21,02,2014,00,00*66
$GPGGA,151047,5225.9317,N,00401.2287,W,1,09,1.00,39.29,M,51.629,M,,*60
$GPRMC,151047,A,5225.9317,N,00401.2287,W,19.8427,222.121,210214,,*0A
$GPGSA,A,3,05,09,26,08,28,07,15,21,24,,,,2.6,1.0,1.9*33
$GPZDA,151048.00,21,02,2014,00,00*69
$GPGGA,151048,5225.9273,N,00401.2354,W,1,09,1.00,39.31,M,51.629,M,,*6A
$GPRMC,151048,A,5225.9273,N,00401.2354,W,21.8422,222.281,210214,,*0E
$GPGSA,A,3,05,09,26,08,28,07,15,21,24,,,,2.6,1.0,1.9*33
$GPZDA,151049.00,21,02,2014,00,00*68
$GPGGA,151049,5225.9225,N,00401.2420,W,1,09,1.00,38.55,M,51.629,M,,*6F
$GPRMC,151049,A,5225.9225,N,00401.2420,W,22.4079,222.642,210214,,*06
$GPGSA,A,3,05,09,26,08,28,07,15,21,24,,,,2.6,1.0,1.9*33
$GPGSV,3,1,10,08,51,058,28,09,55,061,36,28,43,111,32,26,80,303,38*70
$GPGSV,3,2,10,24,05,234,33,05,53,190,35,07,18,057,21,15,40,283,37*70
$GPGSV,3,3,10,21,18,304,26,18,05,318,29*7C
$GPZDA,151050.00,21,02,2014,00,00*60
$GPGGA,151050,5225.9181,N,00401.2487,W,1,09,1.00,38.58,M,51.629,M,,*6A
$GPRMC,151050,A,5225.9181,N,00401.2487,W,21.8868,223.098,210214,,*09
$GPGSA,A,3,05,09,26,08,28,07,15,21,24,,,,2.6,1.0,1.9*33
$GPZDA,151051.00,21,02,2014,00,00*61
$GPGGA,151051,5225.9141,N,00401.2554,W,1,09,1.00,38.00,M,51.630,M,,*6D
$GPRMC,151051,A,5225.9141,N,00401.2554,W,20.8096,224.314,210214,,*03
$GPGSA,A,3,05,09,26,08,28,07,15,21,24,,,,2.6,1.0,1.9*33
$GPZDA,151052.00,21,02,2014,00,00*62
$GPGGA,151052,5225.9096,N,00401.2621,W,1,09,1.00,38.02,M,51.630,M,,*66
$GPRMC,151052,A,5225.9096,N,00401.2621,W,20.7611,225.457,210214,,*0D
$GPGSA,A,3,05,09,26,08,28,07,15,21,24,,,,2.6,1.0,1.9*33
$GPGSV,3,1,10,08,51,058,18,09,55,061,28,28,43,111,29,26,80,303,38*76
$GPGSV,3,2,10,24,05,234,27,05,53,190,35,07,18,057,23,15,40,283,37*77
$GPGSV,3,3,10,21,18,304,23,18,05,318,28*78
$GPZDA,151053.00,21,02,2014,00,00*63
$GPGGA,151053,5225.9064,N,00401.2689,W,1,09,1.00,37.63,M,51.630,M,,*60
$GPRMC,151053,A,5225.9064,N,00401.2689,W,20.4421,228.740,210214,,*09
$GPGSA,A,3,05,09,26,08,28,07,15,21,24,,,,2.6,1.0,1.9*33
$GPZDA,151054.00,21,02,2014,00,00*64
$GPGGA,151054,5225.9024,N,00401.2756,W,1,09,1.00,37.05,M,51.630,M,,*60
$GPRMC,151054,A,5225.9024,N,00401.2756,W,20.3158,230.354,210214,,*0D
$GPGSA,A,3,05,09,26,08,28,07,15,21,24,,,,2.6,1.0,1.9*33
$GPZDA,151055.00,21,02,2014,00,00*65
$GPGGA,151055,5225.8987,N,00401.2833,W,1,09,1.00,35.90,M,51.630,M,,*62
$GPRMC,151055,A,5225.8987,N,00401.2833,W,20.4498,227.696,210214,,*02
$GPGSA,A,3,05,09,26,08,28,07,15,21,24,,,,2.6,1.0,1.9*33
$GPGSV,3,1,10,08,51,058,28,09,55,061,28,28,43,111,24,26,80,303,38*78
$GPGSV,3,2,10,24,05,234,20,05,53,190,36,07,18,057,20,15,40,283,37*70
$GPGSV,3,3,10,21,18,304,26,18,05,318,28*7D
$GPZDA,151056.00,21,02,2014,00,00*66
$GPGGA,151056,5225.8947,N,00401.2900,W,1,09,1.00,35.32,M,51.630,M,,*64
$GPRMC,151056,A,5225.8947,N,00401.2900,W,20.8288,228.539,210214,,*0E
$GPGSA,A,3,05,09,26,08,28,07,15,21,24,,,,2.6,1.0,1.9*33
$GPZDA,151057.00,21,02,2014,00,00*67
$GPGGA,151057,5225.8907,N,00401.2968,W,1,09,1.00,34.74,M,51.630,M,,*6C
$GPRMC,151057,A,5225.8907,N,00401.2968,W,20.7379,227.816,210214,,*0A
$GPGSA,A,3,05,09,26,08,28,07,15,21,24,,,,2.6,1.0,1.9*33
$GPZDA,151058.00,21,02,2014,00,00*68
$GPGGA,151058,5225.8871,N,00401.3036,W,1,09,1.00,33.55,M,51.630,M,,*64
$GPRMC,151058,A,5225.8871,N,00401.3036,W,19.8568,227.571,210214,,*09
$GPGSA,A,3,05,09,26,08,28,07,15,21,24,,,,2.6,1.0,1.9*33
$GPGSV,3,1,10,08,51,058,26,09,55,061,28,28,43,111,26,26,80,303,38*74
$GPGSV,3,2,10,24,05,234,24,05,53,190,36,07,18,057,24,15,40,283,37*70
$GPGSV,3,3,10,21,18,304,21,18,05,318,28*7A
$GPZDA,151059.00,21,02,2014,00,00*69
$GPGGA,151059,5225.8839,N,00401.3095,W,1,09,1.00,33.12,M,51.631,M,,*62
$GPRMC,151059,A,5225.8839,N,00401.3095,W,17.8742,226.792,210214,,*07
$GPGSA,A,3,05,09,26,08,28,07,15,21,24,,,,2.6,1.0,1.9*33
$GPZDA,151100.00,21,02,2014,00,00*64
$GPGGA,151100,5225.8811,N,00401.3146,W,1,09,1.00,32.03,M,51.631,M,,*6B
$GPRMC,151100,A,5225.8811,N,00401.3146,W,15.5062,226.016,210214,,*0E
$GPGSA,A,3,05,09,26,08,28,07,15,21,24,,,,2.6,1.0,1.9*33
$GPZDA,151101.00,21,02,2014,00,00*65
$GPGGA,151101,5225.8783,N,00401.3197,W,1,08,1.20,30.94,M,51.631,M,,*6D
$GPRMC,151101,A,5225.8783,N,00401.3197,W,12.7956,226.753,210214,,*0A
$GPGSA,A,3,05,09,26,08,28,07,15,21,,,,,2.6,1.2,1.9*37
$GPGSV,3,1,10,08,51,058,27,09,55,061,29,28,43,111,27,26,80,303,38*75
$GPGSV,3,2,10,24,05,234,16,05,53,190,36,07,18,057,25,15,40,283,37*70
$GPGSV,3,3,10,21,18,304,21,18,05,318,28*7A
$GPZDA,151102.00,21,02,2014,00,00*66
$GPGGA,151102,5225.8764,N,00401.3222,W,1,09,1.00,29.90,M,51.631,M,,*65
$GPRMC,151102,A,5225.8764,N,00401.3222,W,9.3261,226.424,210214,,*3F
$GPGSA,A,3,05,09,26,08,28,07,15,21,24,,,,2.6,1.0,1.9*33
$GPZDA,151103.00,21,02,2014,00,00*67
$GPGGA,151103,5225.8751,N,00401.3247,W,1,09,1.00,30.46,M,51.631,M,,*62
$GPRMC,151103,A,5225.8751,N,00401.3247,W,6.5710,224.960,210214,,*3E
$GPGSA,A,3,05,09,26,08,28,07,15,21,24,,,,2.6,1.0,1.9*33
$GPZDA,151104.00,21,02,2014,00,00*60
$GPGGA,151104,5225.8744,N,00401.3255,W,1,09,1.00,30.31,M,51.631,M,,*62
$GPRMC,151104,A,5225.8744,N,00401.3255,W,3.1089,221.973,210214,,*3F
$GPGSA,A,3,05,09,26,08,28,07,15,21,24,,,,2.6,1.0,1.9*33
$GPGSV,3,1,10,08,51,058,28,09,55,061,29,28,43,111,27,26,80,303,38*7A
$GPGSV,3,2,10,24,05,234,22,05,53,190,32,07,18,057,24,15,40,283,36*73
$GPGSV,3,3,10,21,18,304,22,18,05,318,28*79
$GPZDA,151105.00,21,02,2014,00,00*61
$GPGGA,151105,5225.8740,N,00401.3264,W,1,09,1.00,29.56,M,51.631,M,,*6C
$GPRMC,151105,A,5225.8740,N,00401.3264,W,0.9671,207.775,210214,,*3E
$GPGSA,A,3,05,09,26,08,28,07,15,21,24,,,,2.6,1.0,1.9*33
$GPZDA,151106.00,21,02,2014,00,00*62
$GPGGA,151106,5225.8740,N,00401.3264,W,1,09,1.00,29.56,M,51.631,M,,*6F
$GPRMC,151106,A,5225.8740,N,00401.3264,W,0.7246,196.706,210214,,*3C
$GPGSA,A,3,05,09,26,08,28,07,15,21,24,,,,2.6,1.0,1.9*33
$GPZDA,151107.00,21,02,2014,00,00*63
$GPGGA,151107,5225.8732,N,00401.3272,W,1,09,1.00,29.42,M,51.631,M,,*69
$GPRMC,151107,A,5225.8732,N,00401.3272,W,2.2013,227.059,210214,,*3E
$GPGSA,A,3,05,09,26,08,28,07,15,21,24,,,,2.6,1.0,1.9*33
$GPGSV,3,1,10,08,51,058,28,09,55,061,30,28,43,111,28,26,80,303,38*7D
$GPGSV,3,2,10,24,05,234,23,05,53,190,32,07,18,057,24,15,40,283,36*72
$GPGSV,3,3,10,21,18,304,22,18,05,318,29*78
$GPZDA,151108.00,21,02,2014,00,00*6C
$GPGGA,151108,5225.8720,N,00401.3288,W,1,09,1.00,29.93,M,51.631,M,,*6C
$GPRMC,151108,A,5225.8720,N,00401.3288,W,6.0849,229.487,210214,,*3F
$GPGSA,A,3,05,09,26,08,28,07,15,21,24,,,,2.6,1.0,1.9*33
$GPZDA,151109.00,21,02,2014,00,00*6D
$GPGGA,151109,5225.8703,N,00401.3322,W,1,09,1.00,29.73,M,51.631,M,,*63
$GPRMC,151109,A,5225.8703,N,00401.3322,W,8.7706,227.632,210214,,*31
$GPGSA,A,3,05,09,26,08,28,07,15,21,24,,,,2.6,1.0,1.9*33
$GPZDA,151110.00,21,02,2014,00,00*65
$GPGGA,151110,5225.8687,N,00401.3356,W,1,09,1.00,29.54,M,51.631,M,,*60
$GPRMC,151110,A,5225.8687,N,00401.3356,W,9.2190,224.362,210214,,*39
$GPGSA,A,3,05,09,26,08,28,07,15,21,24,,,,2.6,1.0,1.9*33
$GPGSV,3,1,10,08,51,058,28,09,55,061,30,28,43,111,28,26,80,303,38*7D
$GPGSV,3,2,10,24,05,234,26,05,53,190,33,07,18,057,25,15,40,283,36*77
$GPGSV,3,3,10,21,18,304,22,18,05,318,22*73
$GPZDA,151111.00,21,02,2014,00,00*64
$GPGGA,151111,5225.8667,N,00401.3390,W,1,09,1.00,29.95,M,51.631,M,,*68
$GPRMC,151111,A,5225.8667,N,00401.3390,W,10.8230,228.793,210214,,*01
$GPGSA,A,3,05,09,26,08,28,07,15,21,24,,,,2.6,1.0,1.9*33
$GPZDA,151112.00,21,02,2014,00,00*67
$GPGGA,151112,5225.8642,N,00401.3432,W,1,09,1.00,29.61,M,51.631,M,,*68
$GPRMC,151112,A,5225.8642,N,00401.3432,W,13.6010,228.833,210214,,*02
$GPGSA,A,3,05,09,26,08,28,07,15,21,24,,,,2.6,1.0,1.9*33
$GPZDA,151113.00,21,02,2014,00,00*66
$GPGGA,151113,5225.8610,N,00401.3491,W,1,07,1.40,29.17,M,51.631,M,,*6C
$GPRMC,151113,A,5225.8610,N,00401.3491,W,16.3646,230.319,210214,,*02
$GPGSA,A,3,05,09,26,08,28,07,15,,,,,,2.6,1.4,1.9*32
$GPGSV,3,1,10,08,51,058,26,09,55,061,30,28,43,111,28,26,80,303,38*73
$GPGSV,3,2,10,24,05,234,23,05,53,190,36,07,18,057,25,15,40,283,26*76
$GPGSV,3,3,10,21,18,304,00,18,05,318,11*73
$GPZDA,151114.00,21,02,2014,00,00*61
$GPGGA,151114,5225.8581,N,00401.3550,W,1,08,1.20,29.52,M,51.632,M,,*67
$GPRMC,151114,A,5225.8581,N,00401.3550,W,16.9140,227.781,210214,,*0A
$GPGSA,A,3,05,09,26,08,28,07,15,24,,,,,2.6,1.2,1.9*32
$GPZDA,151115.00,21,02,2014,00,00*60
$GPGGA,151115,5225.8549,N,00401.3609,W,1,08,1.20,29.09,M,51.632,M,,*63
$GPRMC,151115,A,5225.8549,N,00401.3609,W,18.1767,229.014,210214,,*00
$GPGSA,A,3,05,09,26,08,28,07,15,24,,,,,2.6,1.2,1.9*32
$GPGBS,151115,19.17,M,17.30,M,44.45,M*04
$GPZDA,151116.00,21,02,2014,00,00*63
$GPGGA,151116,5225.8512,N,00401.3685,W,1,08,1.20,29.34,M,51.632,M,,*64
$GPRMC,151116,A,5225.8512,N,00401.3685,W,20.4598,231.869,210214,,*0E
$GPGSA,A,3,05,09,26,08,28,07,15,24,,,,,2.6,1.2,1.9*32
$GPGBS,151116,19.17,M,17.30,M,44.45,M*07
$GPGSV,3,1,09,08,51,058,32,09,54,061,30,28,43,111,29,26,80,303,38*7E
$GPGSV,3,2,09,24,05,234,30,05,53,190,36,07,17,057,22,15,40,283,27*75
$GPGSV,3,3,09,126,24,144,30*71
$GPZDA,151117.00,21,02,2014,00,00*62
$GPGGA,151117,5225.8478,N,00401.3771,W,1,08,1.20,29.03,M,51.632,M,,*66
$GPRMC,151117,A,5225.8478,N,00401.3771,W,22.6548,233.627,210214,,*03
$GPGSA,A,3,05,09,26,08,28,07,15,24,,,,,2.6,1.2,1.9*32
$GPZDA,151118.00,21,02,2014,00,00*6D
$GPGGA,151118,5225.8441,N,00401.3856,W,1,08,1.20,29.33,M,51.632,M,,*6A
$GPRMC,151118,A,5225.8441,N,00401.3856,W,24.2509,237.515,210214,,*0D
$GPGSA,A,3,05,09,26,08,28,07,15,24,,,,,2.6,1.2,1.9*32
$GPZDA,151119.00,21,02,2014,00,00*6C
$GPGGA,151119,5225.8411,N,00401.3950,W,1,08,1.20,29.85,M,51.632,M,,*64
$GPRMC,151119,A,5225.8411,N,00401.3950,W,23.7462,241.076,210214,,*01
$GPGSA,A,3,05,09,26,08,28,07,15,24,,,,,2.6,1.2,1.9*32
$GPGSV,3,1,09,08,51,058,31,09,54,061,30,28,43,111,32,26,80,303,37*78
$GPGSV,3,2,09,24,05,234,21,05,53,190,36,07,17,057,19,15,40,283,26*7C
$GPGSV,3,3,09,126,24,144,28*78
$GPZDA,151120.00,21,02,2014,00,00*66
$GPGGA,151120,5225.8385,N,00401.4045,W,1,08,1.20,29.77,M,51.633,M,,*62
$GPRMC,151120,A,5225.8385,N,00401.4045,W,23.0273,246.677,210214,,*0A
$GPGSA,A,3,05,09,26,08,28,07,15,24,,,,,2.6,1.2,1.9*32
$GPZDA,151121.00,21,02,2014,00,00*67
$GPGGA,151121,5225.8362,N,00401.4149,W,1,08,1.20,30.52,M,51.633,M,,*68
$GPRMC,151121,A,5225.8362,N,00401.4149,W,23.2864,250.555,210214,,*05
$GPGSA,A,3,05,09,26,08,28,07,15,24,,,,,2.6,1.2,1.9*32
$GPZDA,151122.00,21,02,2014,00,00*64
$GPGGA,151122,5225.8343,N,00401.4244,W,1,08,1.20,30.63,M,51.633,M,,*64
$GPRMC,151122,A,5225.8343,N,00401.4244,W,22.7800,252.848,210214,,*0E
$GPGSA,A,3,05,09,26,08,28,07,15,24,,,,,2.6,1.2,1.9*32
$GPGSV,3,1,09,08,51,058,30,09,54,061,35,28,43,111,28,26,80,303,37*77
$GPGSV,3,2,09,24,05,234,20,05,53,190,36,07,17,057,13,15,40,283,27*76
$GPGSV,3,3,09,126,24,144,24*74
$GPZDA,151123.00,21,02,2014,00,00*65
$GPGGA,151123,5225.8325,N,00401.4349,W,1,08,1.20,30.77,M,51.633,M,,*6C
$GPRMC,151123,A,5225.8325,N,00401.4349,W,22.5009,253.059,210214,,*09
$GPGSA,A,3,05,09,26,08,28,07,15,24,,,,,2.6,1.2,1.9*32
$GPZDA,151124.00,21,02,2014,00,00*62
$GPGGA,151124,5225.8310,N,00401.4444,W,1,08,1.20,31.66,M,51.633,M,,*66
$GPRMC,151124,A,5225.8310,N,00401.4444,W,22.2258,253.397,210214,,*02
$GPGSA,A,3,05,09,26,08,28,07,15,24,,,,,2.6,1.2,1.9*32
$GPZDA,151125.00,21,02,2014,00,00*63
$GPGGA,151125,5225.8291,N,00401.4540,W,1,08,1.20,31.77,M,51.633,M,,*6A
$GPRMC,151125,A,5225.8291,N,00401.4540,W,21.7898,250.217,210214,,*04
$GPGSA,A,3,05,09,26,08,28,07,15,24,,,,,2.6,1.2,1.9*32
$GPGSV,3,1,09,08,51,058,30,09,54,061,34,28,43,111,29,26,80,303,37*77
$GPGSV,3,2,09,24,05,234,18,05,53,190,36,07,17,057,12,15,40,283,27*7C
$GPGSV,3,3,09,21,18,304,10*4C
$GPZDA,151126.00,21,02,2014,00,00*60
$GPGGA,151126,5225.8264,N,00401.4634,W,1,09,1.00,33.08,M,51.634,M,,*6D
$GPRMC,151126,A,5225.8264,N,00401.4634,W,22.6257,247.499,210214,,*00
$GPGSA,A,3,21,05,09,26,08,28,07,15,24,,,,2.6,1.0,1.9*33
$GPZDA,151127.00,21,02,2014,00,00*61
$GPGGA,151127,5225.8242,N,00401.4729,W,1,09,1.00,33.79,M,51.634,M,,*63
$GPRMC,151127,A,5225.8242,N,00401.4729,W,23.7137,247.168,210214,,*06
$GPGSA,A,3,21,05,09,26,08,28,07,15,24,,,,2.6,1.0,1.9*33
$GPZDA,151128.00,21,02,2014,00,00*6E
$GPGGA,151128,5225.8215,N,00401.4833,W,1,07,1.40,33.75,M,51.634,M,,*6C
$GPRMC,151128,A,5225.8215,N,00401.4833,W,24.2899,248.501,210214,,*04
$GPGSA,A,3,21,05,09,26,08,28,15,,,,,,2.6,1.4,1.9*36
$GPGSV,3,1,09,08,51,058,29,09,54,061,31,28,43,111,29,26,80,303,37*7A
$GPGSV,3,2,09,24,05,234,00,05,53,190,37,15,40,283,38,21,18,304,22*77
$GPGSV,3,3,09,126,24,144,25*75
$GPZDA,151129.00,21,02,2014,00,00*6F
$GPGGA,151129,5225.8192,N,00401.4945,W,1,07,1.40,34.55,M,51.634,M,,*64
$GPRMC,151129,A,5225.8192,N,00401.4945,W,24.6859,251.390,210214,,*07
$GPGSA,A,3,21,05,09,26,08,28,15,,,,,,2.6,1.4,1.9*36
$GPZDA,151130.00,21,02,2014,00,00*67
$GPGGA,151130,5225.8177,N,00401.5050,W,1,06,1.40,35.49,M,51.634,M,,*66
$GPRMC,151130,A,5225.8177,N,00401.5050,W,24.8310,254.825,210214,,*00
$GPGSA,A,3,05,09,26,08,28,15,,,,,,,2.6,1.4,1.9*35
$GPZDA,151131.00,21,02,2014,00,00*66
$GPGGA,151131,5225.8162,N,00401.5163,W,1,06,1.40,35.07,M,51.635,M,,*69
$GPRMC,151131,A,5225.8162,N,00401.5163,W,24.8798,257.350,210214,,*0A
$GPGSA,A,3,05,09,26,08,28,15,,,,,,,2.6,1.4,1.9*35
$GPGSV,2,1,08,08,51,058,26,09,54,061,32,28,43,111,29,26,80,303,37*76
$GPGSV,2,2,08,05,53,190,30,15,40,283,28,21,18,304,15,126,24,144,24*47
$GPZDA,151132.00,21,02,2014,00,00*65
$GPGGA,151132,5225.8151,N,00401.5277,W,1,07,1.40,35.44,M,51.635,M,,*6A
$GPRMC,151132,A,5225.8151,N,00401.5277,W,25.4495,259.888,210214,,*0C
$GPGSA,A,3,21,05,09,26,08,28,15,,,,,,2.6,1.4,1.9*36
$GPZDA,151133.00,21,02,2014,00,00*64
$GPGGA,151133,5225.8139,N,00401.5391,W,1,07,1.40,35.81,M,51.635,M,,*65
$GPRMC,151133,A,5225.8139,N,00401.5391,W,25.0343,258.540,210214,,*0A
$GPGSA,A,3,21,05,09,26,08,28,15,,,,,,2.6,1.4,1.9*36
$GPZDA,151134.00,21,02,2014,00,00*63
$GPGGA,151134,5225.8127,N,00401.5514,W,1,08,1.20,36.22,M,51.635,M,,*65
$GPRMC,151134,A,5225.8127,N,00401.5514,W,26.2006,260.383,210214,,*08
$GPGSA,A,3,21,05,09,26,08,28,07,15,,,,,2.6,1.2,1.9*37
$GPGSV,2,1,08,08,51,058,30,09,54,061,33,28,43,111,21,26,80,303,37*78
$GPGSV,2,2,08,07,17,057,16,05,53,190,28,15,40,283,28,21,18,304,16*7D
$GPZDA,151135.00,21,02,2014,00,00*62
$GPGGA,151135,5225.8109,N,00401.5627,W,1,08,1.20,35.01,M,51.636,M,,*6A
$GPRMC,151135,A,5225.8109,N,00401.5627,W,26.1013,255.888,210214,,*07
$GPGSA,A,3,21,05,09,26,08,28,07,15,,,,,2.6,1.2,1.9*37
$GPZDA,151136.00,21,02,2014,00,00*61
$GPGGA,151136,5225.8096,N,00401.5742,W,1,08,1.20,33.19,M,51.636,M,,*63
$GPRMC,151136,A,5225.8096,N,00401.5742,W,25.9224,255.882,210214,,*06
$GPGSA,A,3,21,05,09,26,08,28,07,15,,,,,2.6,1.2,1.9*37
$GPZDA,151137.00,21,02,2014,00,00*60
$GPGGA,151137,5225.8078,N,00401.5856,W,1,08,1.20,30.58,M,51.636,M,,*6E
$GPRMC,151137,A,5225.8078,N,00401.5856,W,25.5636,258.123,210214,,*09
$GPGSA,A,3,21,05,09,26,08,28,07,15,,,,,2.6,1.2,1.9*37
$GPGSV,2,1,08,08,51,058,30,09,54,061,33,28,43,111,20,26,80,303,37*79
$GPGSV,2,2,08,07,17,057,15,05,53,190,28,15,40,283,29,21,18,304,17*7E
$GPZDA,151138.00,21,02,2014,00,00*6F
$GPGGA,151138,5225.8066,N,00401.5962,W,1,08,1.20,27.31,M,51.636,M,,*61
$GPRMC,151138,A,5225.8066,N,00401.5962,W,23.6062,258.454,210214,,*08
$GPGSA,A,3,21,05,09,26,08,28,07,15,,,,,2.6,1.2,1.9*37
$GPZDA,151139.00,21,02,2014,00,00*6E
$GPGGA,151139,5225.8057,N,00401.6060,W,1,08,1.20,24.80,M,51.636,M,,*63
$GPRMC,151139,A,5225.8057,N,00401.6060,W,21.6555,258.092,210214,,*0E
$GPGSA,A,3,21,05,09,26,08,28,07,15,,,,,2.6,1.2,1.9*37
$GPZDA,151140.00,21,02,2014,00,00*60
$GPGGA,151140,5225.8048,N,00401.6157,W,1,08,1.20,22.28,M,51.637,M,,*63
$GPRMC,151140,A,5225.8048,N,00401.6157,W,21.8285,258.827,210214,,*09
$GPGSA,A,3,21,05,09,26,08,28,07,15,,,,,2.6,1.2,1.9*37
$GPGSV,2,1,08,08,51,058,31,09,54,061,32,28,43,111,26,26,80,303,37*7F
$GPGSV,2,2,08,07,17,057,14,05,53,190,37,15,40,283,36,21,18,304,27*7C
$GPZDA,151141.00,21,02,2014,00,00*61
$GPGGA,151141,5225.8035,N,00401.6263,W,1,08,1.20,20.42,M,51.637,M,,*62
$GPRMC,151141,A,5225.8035,N,00401.6263,W,23.5714,257.084,210214,,*0A
$GPGSA,A,3,21,05,09,26,08,28,07,15,,,,,2.6,1.2,1.9*37
$GPZDA,151142.00,21,02,2014,00,00*62
$GPGGA,151142,5225.8020,N,00401.6376,W,1,08,1.20,20.00,M,51.637,M,,*66
$GPRMC,151142,A,5225.8020,N,00401.6376,W,25.0064,256.782,210214,,*0B
$GPGSA,A,3,21,05,09,26,08,28,07,15,,,,,2.6,1.2,1.9*37
$GPZDA,151143.00,21,02,2014,00,00*63
$GPGGA,151143,5225.8009,N,00401.6490,W,1,08,1.20,20.37,M,51.637,M,,*67
$GPRMC,151143,A,5225.8009,N,00401.6490,W,25.6359,254.837,210214,,*06
$GPGSA,A,3,21,05,09,26,08,28,07,15,,,,,2.6,1.2,1.9*37
$GPGSV,2,1,08,08,51,058,32,09,54,061,33,28,43,111,29,26,80,303,38*7D
$GPGSV,2,2,08,05,53,190,38,18,05,318,31,15,40,283,36,21,18,304,28*7E
$GPZDA,151144.00,21,02,2014,00,00*64
$GPGGA,151144,5225.7989,N,00401.6612,W,1,07,1.40,20.60,M,51.637,M,,*6D
$GPRMC,151144,A,5225.7989,N,00401.6612,W,26.5726,252.806,210214,,*0F
$GPGSA,A,3,21,05,09,26,08,28,15,,,,,,2.6,1.4,1.9*36
$GPZDA,151145.00,21,02,2014,00,00*65
$GPGGA,151145,5225.7966,N,00401.6725,W,1,08,1.20,21.39,M,51.638,M,,*63
$GPRMC,151145,A,5225.7966,N,00401.6725,W,26.9835,251.529,210214,,*08
$GPGSA,A,3,21,05,09,26,08,28,07,15,,,,,2.6,1.2,1.9*37
$GPGBS,151145,19.17,M,17.30,M,44.45,M*01
$GPZDA,151146.00,21,02,2014,00,00*66
$GPGGA,151146,5225.7942,N,00401.6846,W,1,08,1.20,22.23,M,51.638,M,,*64
$GPRMC,151146,A,5225.7942,N,00401.6846,W,28.0221,249.428,210214,,*06
$GPGSA,A,3,21,05,09,26,08,28,07,15,,,,,2.6,1.2,1.9*37
$GPGBS,151146,19.17,M,17.30,M,44.45,M*02
$GPGSV,3,1,09,08,50,058,31,09,54,061,34,28,43,111,30,26,80,303,38*70
$GPGSV,3,2,09,07,17,057,23,05,53,190,38,18,05,318,31,15,40,283,36*7B
$GPGSV,3,3,09,21,18,303,29*41
$GPZDA,151147.00,21,02,2014,00,00*67
$GPGGA,151147,5225.7919,N,00401.6976,W,1,08,1.20,23.11,M,51.638,M,,*69
$GPRMC,151147,A,5225.7919,N,00401.6976,W,28.6974,248.327,210214,,*0F
$GPGSA,A,3,21,05,09,26,08,28,07,15,,,,,2.6,1.2,1.9*37
$GPZDA,151148.00,21,02,2014,00,00*68
$GPGGA,151148,5225.7883,N,00401.7096,W,1,08,1.20,24.38,M,51.638,M,,*6E
$GPRMC,151148,A,5225.7883,N,00401.7096,W,29.2136,246.757,210214,,*02
$GPGSA,A,3,21,05,09,26,08,28,07,15,,,,,2.6,1.2,1.9*37
$GPZDA,151149.00,21,02,2014,00,00*69
$GPGGA,151149,5225.7855,N,00401.7217,W,1,08,1.20,25.82,M,51.639,M,,*6E
$GPRMC,151149,A,5225.7855,N,00401.7217,W,29.0750,244.716,210214,,*00
$GPGSA,A,3,21,05,09,26,08,28,07,15,,,,,2.6,1.2,1.9*37
$GPGSV,3,1,10,08,50,058,32,09,54,061,34,28,43,111,30,26,80,303,37*74
$GPGSV,3,2,10,07,17,057,25,05,53,190,38,18,05,318,16,15,40,283,36*70
$GPGSV,3,3,10,21,18,303,29,126,24,144,30*48
$GPZDA,151150.00,21,02,2014,00,00*61
$GPGGA,151150,5225.7820,N,00401.7337,W,1,09,1.20,27.09,M,51.639,M,,*67
$GPRMC,151150,A,5225.7820,N,00401.7337,W,28.6840,242.722,210214,,*01
$GPGSA,A,3,21,05,09,26,08,28,07,15,18,,,,2.6,1.2,1.9*3E
$GPZDA,151151.00,21,02,2014,00,00*60
$GPGGA,151151,5225.7784,N,00401.7448,W,1,09,1.20,29.71,M,51.639,M,,*69
$GPRMC,151151,A,5225.7784,N,00401.7448,W,27.9534,241.178,210214,,*0A
$GPGSA,A,3,21,05,09,26,08,28,07,15,18,,,,2.6,1.2,1.9*3E
$GPGBS,151151,19.17,M,17.30,M,44.45,M*04
$GPZDA,151152.00,21,02,2014,00,00*63
$GPGGA,151152,5225.7749,N,00401.7559,W,1,08,1.20,30.93,M,51.639,M,,*6F
$GPRMC,151152,A,5225.7749,N,00401.7559,W,27.4602,239.784,210214,,*08
$GPGSA,A,3,21,05,09,26,08,28,07,15,,,,,2.6,1.2,1.9*37
$GPGBS,151152,19.17,M,17.30,M,44.45,M*07
$GPGSV,3,1,10,08,50,058,32,09,54,061,28,28,43,111,35,26,80,304,37*7B
$GPGSV,3,2,10,07,17,057,29,05,53,190,27,15,40,283,37,21,18,303,21*7B
$GPGSV,3,3,10,19,05,033,26,126,24,144,29*48
$GPZDA,151153.00,21,02,2014,00,00*62
$GPGGA,151153,5225.7713,N,00401.7661,W,1,08,1.20,33.51,M,51.640,M,,*6A
$GPRMC,151153,A,5225.7713,N,00401.7661,W,26.1796,238.233,210214,,*0E
$GPGSA,A,3,21,05,09,26,08,28,07,15,,,,,2.6,1.2,1.9*37
$GPZDA,151154.00,21,02,2014,00,00*65
$GPGGA,151154,5225.7674,N,00401.7763,W,1,08,1.20,35.29,M,51.640,M,,*67
$GPRMC,151154,A,5225.7674,N,00401.7763,W,24.7934,235.956,210214,,*0D
$GPGSA,A,3,21,05,09,26,08,28,07,15,,,,,2.6,1.2,1.9*37
$GPZDA,151155.00,21,02,2014,00,00*64
$GPGGA,151155,5225.7635,N,00401.7856,W,1,08,1.20,37.03,M,51.640,M,,*60
$GPRMC,151155,A,5225.7635,N,00401.7856,W,24.6274,233.444,210214,,*06
$GPGSA,A,3,21,05,09,26,08,28,07,15,,,,,2.6,1.2,1.9*37
$GPGSV,3,1,10,08,50,058,23,09,54,061,30,28,43,111,34,26,80,304,37*73
$GPGSV,3,2,10,07,17,057,26,05,53,190,28,15,40,283,37,21,18,303,22*78
$GPGSV,3,3,10,19,05,033,19,126,24,144,31*4D
$GPZDA,151156.00,21,02,2014,00,00*67
$GPGGA,151156,5225.7596,N,00401.7949,W,1,08,1.20,38.78,M,51.640,M,,*65
$GPRMC,151156,A,5225.7596,N,00401.7949,W,25.3011,231.248,210214,,*0D
$GPGSA,A,3,21,05,09,26,08,28,07,15,,,,,2.6,1.2,1.9*37
$GPZDA,151157.00,21,02,2014,00,00*66
$GPGGA,151157,5225.7550,N,00401.8033,W,1,08,1.20,40.29,M,51.640,M,,*6E
$GPRMC,151157,A,5225.7550,N,00401.8033,W,25.2075,229.716,210214,,*09
$GPGSA,A,3,21,05,09,26,08,28,07,15,,,,,2.6,1.2,1.9*37
$GPZDA,151158.00,21,02,2014,00,00*69
$GPGGA,151158,5225.7512,N,00401.8126,W,1,07,1.40,42.04,M,51.640,M,,*66
$GPRMC,151158,A,5225.7512,N,00401.8126,W,24.7987,231.930,210214,,*06
$GPGSA,A,3,05,09,26,08,28,07,15,,,,,,2.6,1.4,1.9*32
$GPGSV,3,1,10,08,50,058,28,09,54,061,27,28,43,111,34,26,80,304,37*7E
$GPGSV,3,2,10,07,17,057,20,05,53,190,28,15,40,283,36,21,18,303,00*7F
$GPGSV,3,3,10,19,05,033,18,126,24,144,31*4C
$GPZDA,151159.00,21,02,2014,00,00*68
$GPGGA,151159,5225.7473,N,00401.8219,W,1,07,1.40,43.78,M,51.641,M,,*65
$GPRMC,151159,A,5225.7473,N,00401.8219,W,24.1488,235.288,210214,,*06
$GPGSA,A,3,05,09,26,08,28,07,15,,,,,,2.6,1.4,1.9*32
$GPZDA,151200.00,21,02,2014,00,00*67
$GPGGA,151200,5225.7439,N,00401.8312,W,1,07,1.40,44.91,M,51.641,M,,*6E
$GPRMC,151200,A,5225.7439,N,00401.8312,W,23.5552,237.585,210214,,*00
$GPGSA,A,3,05,09,26,08,28,07,15,,,,,,2.6,1.4,1.9*32
$GPZDA,151201.00,21,02,2014,00,00*66
$GPGGA,151201,5225.7408,N,00401.8397,W,1,07,1.40,46.80,M,51.641,M,,*62
$GPRMC,151201,A,5225.7408,N,00401.8397,W,22.2077,238.656,210214,,*08
$GPGSA,A,3,05,09,26,08,28,07,15,,,,,,2.6,1.4,1.9*32
$GPGSV,3,1,10,08,50,058,32,09,54,061,28,28,43,111,34,26,80,304,36*7B
$GPGSV,3,2,10,07,17,057,20,05,53,190,25,21,18,303,19,15,40,283,35*79
$GPGSV,3,3,10,19,05,033,24,126,24,144,30*42
$GPZDA,151202.00,21,02,2014,00,00*65
$GPGGA,151202,5225.7377,N,00401.8473,W,1,08,1.20,48.64,M,51.641,M,,*6E
$GPRMC,151202,A,5225.7377,N,00401.8473,W,20.5839,234.468,210214,,*0D
$GPGSA,A,3,21,05,09,26,08,28,07,15,,,,,2.6,1.2,1.9*37
$GPZDA,151203.00,21,02,2014,00,00*64
$GPGGA,151203,5225.7342,N,00401.8549,W,1,08,1.20,51.09,M,51.641,M,,*62
$GPRMC,151203,A,5225.7342,N,00401.8549,W,20.2634,233.393,210214,,*02
$GPGSA,A,3,21,05,09,26,08,28,07,15,,,,,2.6,1.2,1.9*37
$GPZDA,151204.00,21,02,2014,00,00*63
$GPGGA,151204,5225.7312,N,00401.8625,W,1,08,1.20,52.93,M,51.641,M,,*69
$GPRMC,151204,A,5225.7312,N,00401.8625,W,20.4545,232.599,210214,,*07
$GPGSA,A,3,21,05,09,26,08,28,07,15,,,,,2.6,1.2,1.9*37
$GPGSV,3,1,10,08,50,058,30,09,54,061,29,28,43,111,34,26,80,304,37*79
$GPGSV,3,2,10,07,17,057,20,05,53,190,25,21,18,303,22,15,40,283,36*72
$GPGSV,3,3,10,19,05,033,14,126,24,144,31*40
$GPZDA,151205.00,21,02,2014,00,00*62
$GPGGA,151205,5225.7277,N,00401.8710,W,1,08,1.20,54.02,M,51.642,M,,*60
$GPRMC,151205,A,5225.7277,N,00401.8710,W,20.9847,235.302,210214,,*02
$GPGSA,A,3,21,05,09,26,08,28,07,15,,,,,2.6,1.2,1.9*37
$GPZDA,151206.00,21,02,2014,00,00*61
$GPGGA,151206,5225.7246,N,00401.8795,W,1,08,1.20,55.91,M,51.642,M,,*67
$GPRMC,151206,A,5225.7246,N,00401.8795,W,21.8087,236.755,210214,,*0F
$GPGSA,A,3,21,05,09,26,08,28,07,15,,,,,2.6,1.2,1.9*37
$GPZDA,151207.00,21,02,2014,00,00*60
$GPGGA,151207,5225.7216,N,00401.8880,W,1,07,1.40,57.79,M,51.642,M,,*65
$GPRMC,151207,A,5225.7216,N,00401.8880,W,22.3545,238.126,210214,,*0F
$GPGSA,A,3,21,05,26,08,28,07,15,,,,,,2.6,1.4,1.9*38
$GPGSV,3,1,10,08,50,058,30,09,54,061,23,28,43,111,34,26,80,304,37*73
$GPGSV,3,2,10,07,17,057,20,05,53,190,29,21,18,303,00,15,40,283,36*7E
$GPGSV,3,3,10,19,05,033,24,126,24,144,30*42
$GPZDA,151208.00,21,02,2014,00,00*6F
$GPGGA,151208,5225.7181,N,00401.8973,W,1,07,1.40,58.93,M,51.642,M,,*61
$GPRMC,151208,A,5225.7181,N,00401.8973,W,23.2458,237.828,210214,,*05
$GPGSA,A,3,05,09,26,08,28,07,15,,,,,,2.6,1.4,1.9*32
$GPZDA,151209.00,21,02,2014,00,00*6E
$GPGGA,151209,5225.7150,N,00401.9058,W,1,07,1.40,60.81,M,51.642,M,,*65
$GPRMC,151209,A,5225.7150,N,00401.9058,W,22.4905,238.743,210214,,*06
$GPGSA,A,3,05,09,26,08,28,07,15,,,,,,2.6,1.4,1.9*32
$GPZDA,151210.00,21,02,2014,00,00*66
$GPGGA,151210,5225.7119,N,00401.9152,W,1,07,1.40,62.74,M,51.642,M,,*63
$GPRMC,151210,A,5225.7119,N,00401.9152,W,22.4140,239.066,210214,,*00
$GPGSA,A,3,05,09,26,08,28,07,15,,,,,,2.6,1.4,1.9*32
$GPGSV,3,1,09,08,50,058,30,09,54,061,31,28,43,111,34,26,80,304,36*79
$GPGSV,3,2,09,07,17,057,19,05,53,190,30,15,40,283,36,19,05,033,26*77
$GPGSV,3,3,09,126,24,144,28*78
$GPZDA,151211.00,21,02,2014,00,00*67
$GPGGA,151211,5225.7085,N,00401.9237,W,1,07,1.40,63.83,M,51.643,M,,*6E
$GPRMC,151211,A,5225.7085,N,00401.9237,W,21.8241,239.262,210214,,*0E
$GPGSA,A,3,05,09,26,08,28,07,15,,,,,,2.6,1.4,1.9*32
$GPZDA,151212.00,21,02,2014,00,00*64
$GPGGA,151212,5225.7054,N,00401.9322,W,1,07,1.40,65.71,M,51.643,M,,*6F
$GPRMC,151212,A,5225.7054,N,00401.9322,W,21.3102,239.126,210214,,*08
$GPGSA,A,3,05,09,26,08,28,07,15,,,,,,2.6,1.4,1.9*32
$GPZDA,151213.00,21,02,2014,00,00*65
$GPGGA,151213,5225.7028,N,00401.9398,W,1,06,1.40,66.95,M,51.643,M,,*6C
$GPRMC,151213,A,5225.7028,N,00401.9398,W,20.2064,239.193,210214,,*0C
$GPGSA,A,3,05,26,08,28,07,15,,,,,,,2.6,1.4,1.9*3B
$GPGSV,2,1,08,08,50,058,30,09,54,061,18,28,43,111,34,26,80,304,36*72
$GPGSV,2,2,08,07,17,057,28,05,53,190,34,15,40,283,36,19,05,033,26*71
$GPZDA,151214.00,21,02,2014,00,00*62
$GPGGA,151214,5225.7001,N,00401.9475,W,1,07,1.40,68.18,M,51.643,M,,*6E
$GPRMC,151214,A,5225.7001,N,00401.9475,W,19.6925,239.043,210214,,*0A
$GPGSA,A,3,05,09,26,08,28,07,15,,,,,,2.6,1.4,1.9*32
$GPZDA,151215.00,21,02,2014,00,00*63
$GPGGA,151215,5225.6975,N,00401.9552,W,1,06,1.40,69.42,M,51.643,M,,*6F
$GPRMC,151215,A,5225.6975,N,00401.9552,W,18.8387,237.668,210214,,*08
$GPGSA,A,3,05,09,26,08,28,15,,,,,,,2.6,1.4,1.9*35
$GPZDA,151216.00,21,02,2014,00,00*60
$GPGGA,151216,5225.6949,N,00401.9628,W,1,04,2.20,70.65,M,51.643,M,,*67
$GPRMC,151216,A,5225.6949,N,00401.9628,W,19.2365,240.119,210214,,*0C
$GPGSA,A,3,05,26,28,15,,,,,,,,,2.6,2.2,1.9*31
$GPGSV,2,1,08,08,50,058,00,28,43,111,18,26,80,304,22,07,17,057,11*7F
$GPGSV,2,2,08,05,53,190,23,15,40,283,30,21,18,303,15,19,05,033,13*70
$GPZDA,151217.00,21,02,2014,00,00*61
$GPGGA,151217,5225.6918,N,00401.9705,W,1,05,2.00,72.49,M,51.644,M,,*64
$GPRMC,151217,A,5225.6918,N,00401.9705,W,19.2999,236.766,210214,,*01
$GPGSA,A,3,05,26,28,15,21,,,,,,,,2.6,2.0,1.9*30
$GPZDA,151218.00,21,02,2014,00,00*6E
$GPGGA,151218,5225.6889,N,00401.9772,W,1,06,1.60,72.89,M,51.644,M,,*68
$GPRMC,151218,A,5225.6889,N,00401.9772,W,17.8228,232.841,210214,,*0C
$GPGSA,A,3,05,26,28,07,15,21,,,,,,,2.6,1.6,1.9*32
$GPZDA,151219.00,21,02,2014,00,00*6F
$GPGGA,151219,5225.6860,N,00401.9823,W,1,06,1.60,73.20,M,51.644,M,,*67
$GPRMC,151219,A,5225.6860,N,00401.9823,W,14.6810,227.621,210214,,*01
$GPGSA,A,3,05,26,28,07,15,21,,,,,,,2.6,1.6,1.9*32
$GPGSV,2,1,07,28,43,111,20,26,80,304,20,07,17,057,12,05,53,190,22*71
$GPGSV,2,2,07,15,40,283,30,21,18,303,15,19,05,033,12*44
$GPZDA,151220.00,21,02,2014,00,00*65
$GPGGA,151220,5225.6835,N,00401.9864,W,1,06,1.60,74.26,M,51.644,M,,*6F
$GPRMC,151220,A,5225.6835,N,00401.9864,W,13.3706,224.615,210214,,*06
$GPGSA,A,3,05,26,28,07,15,21,,,,,,,2.6,1.6,1.9*32
$GPZDA,151221.00,21,02,2014,00,00*64
$GPGGA,151221,5225.6807,N,00401.9897,W,1,06,1.60,74.49,M,51.644,M,,*6A
$GPRMC,151221,A,5225.6807,N,00401.9897,W,11.2339,213.741,210214,,*05
$GPGSA,A,3,05,26,28,07,15,21,,,,,,,2.6,1.6,1.9*32
$GPZDA,151222.00,21,02,2014,00,00*67
$GPGGA,151222,5225.6778,N,00401.9912,W,1,06,1.60,76.03,M,51.644,M,,*6E
$GPRMC,151222,A,5225.6778,N,00401.9912,W,10.2428,203.237,210214,,*0E
$GPGSA,A,3,05,26,28,07,15,21,,,,,,,2.6,1.6,1.9*32
$GPGSV,2,1,06,28,43,111,19,26,80,304,17,07,17,057,11,05,53,190,22*7D
$GPGSV,2,2,06,15,40,283,30,21,18,303,16*78
$GPZDA,151223.00,21,02,2014,00,00*66
$GPGGA,151223,5225.6758,N,00401.9927,W,1,05,2.00,76.36,M,51.644,M,,*6B
$GPRMC,151223,A,5225.6758,N,00401.9927,W,8.5410,198.113,210214,,*3A
$GPGSA,A,3,05,26,28,15,21,,,,,,,,2.6,2.0,1.9*30
$GPZDA,151224.00,21,02,2014,00,00*61
$GPGGA,151224,5225.6742,N,00401.9943,W,1,05,2.00,77.48,M,51.644,M,,*6D
$GPRMC,151224,A,5225.6742,N,00401.9943,W,5.7045,201.406,210214,,*3D
$GPGSA,A,3,05,26,28,15,21,,,,,,,,2.6,2.0,1.9*30
$GPZDA,151225.00,21,02,2014,00,00*60
$GPGGA,151225,5225.6744,N,00401.9942,W,1,05,2.00,79.67,M,51.644,M,,*68
$GPRMC,151225,A,5225.6744,N,00401.9942,W,0.7291,210.054,210214,,*36
$GPGSA,A,3,05,26,28,15,21,,,,,,,,2.6,2.0,1.9*30
$GPGSV,2,1,07,09,54,061,25,28,43,111,35,26,80,304,33,07,17,057,12*74
$GPGSV,2,2,07,05,53,190,34,15,40,283,37,21,18,303,25*42
$GPZDA,151226.00,21,02,2014,00,00*63
$GPGGA,151226,5225.6743,N,00401.9951,W,1,07,1.40,81.11,M,51.644,M,,*6D
$GPRMC,151226,A,5225.6743,N,00401.9951,W,1.1901,224.406,210214,,*31
$GPGSA,A,3,09,05,26,28,07,15,21,,,,,,2.6,1.4,1.9*39
$GPZDA,151227.00,21,02,2014,00,00*62
$GPGGA,151227,5225.6741,N,00401.9959,W,1,07,1.40,82.56,M,51.644,M,,*66
$GPRMC,151227,A,5225.6741,N,00401.9959,W,1.5735,238.018,210214,,*31
$GPGSA,A,3,09,05,26,28,07,15,21,,,,,,2.6,1.4,1.9*39
$GPZDA,151228.00,21,02,2014,00,00*6D
$GPGGA,151228,5225.6740,N,00401.9967,W,1,08,1.20,84.00,M,51.644,M,,*69
$GPRMC,151228,A,5225.6740,N,00401.9967,W,3.6556,234.147,210214,,*33
$GPGSA,A,3,09,05,08,26,28,07,15,21,,,,,2.6,1.2,1.9*37
$GPGSV,2,1,08,09,54,061,27,08,50,058,21,28,43,111,35,26,80,304,33*7A
$GPGSV,2,2,08,07,17,057,22,05,53,190,33,15,40,283,37,21,18,303,18*77
$GPZDA,151229.00,21,02,2014,00,00*6C
$GPGGA,151229,5225.6735,N,00401.9984,W,1,08,1.20,84.69,M,51.644,M,,*68
$GPRMC,151229,A,5225.6735,N,00401.9984,W,6.1166,228.644,210214,,*31
$GPGSA,A,3,09,05,08,26,28,07,15,21,,,,,2.6,1.2,1.9*37
$GPZDA,151230.00,21,02,2014,00,00*64
$GPGGA,151230,5225.6722,N,00402.0018,W,1,08,1.20,85.29,M,51.644,M,,*65
$GPRMC,151230,A,5225.6722,N,00402.0018,W,9.2385,224.087,210214,,*3F
$GPGSA,A,3,09,05,08,26,28,07,15,21,,,,,2.6,1.2,1.9*37
$GPZDA,151231.00,21,02,2014,00,00*65
$GPGGA,151231,5225.6702,N,00402.0034,W,1,08,1.20,85.61,M,51.644,M,,*64
$GPRMC,151231,A,5225.6702,N,00402.0034,W,10.1511,211.843,210214,,*04
$GPGSA,A,3,09,05,08,26,28,07,15,21,,,,,2.6,1.2,1.9*37
$GPGSV,2,1,08,09,54,061,32,08,50,058,31,28,43,111,35,26,80,304,33*7F
$GPGSV,2,2,08,07,17,057,22,05,53,190,33,15,40,283,30,21,18,303,17*7F
$GPZDA,151232.00,21,02,2014,00,00*66
$GPGGA,151232,5225.6682,N,00402.0058,W,1,08,1.20,85.98,M,51.644,M,,*62
$GPRMC,151232,A,5225.6682,N,00402.0058,W,11.0744,204.316,210214,,*09
$GPGSA,A,3,09,05,08,26,28,07,15,21,,,,,2.6,1.2,1.9*37
$GPZDA,151233.00,21,02,2014,00,00*67
$GPGGA,151233,5225.6651,N,00402.0073,W,1,08,1.20,85.33,M,51.644,M,,*65
$GPRMC,151233,A,5225.6651,N,00402.0073,W,13.1732,204.411,210214,,*0D
$GPGSA,A,3,09,05,08,26,28,07,15,21,,,,,2.6,1.2,1.9*37
$GPZDA,151234.00,21,02,2014,00,00*60
$GPGGA,151234,5225.6616,N,00402.0097,W,1,08,1.20,85.33,M,51.644,M,,*6B
$GPRMC,151234,A,5225.6616,N,00402.0097,W,16.3227,201.504,210214,,*05
$GPGSA,A,3,09,05,08,26,28,07,15,21,,,,,2.6,1.2,1.9*37
$GPGSV,2,1,08,09,54,061,32,08,50,058,28,28,43,111,34,26,80,304,33*76
$GPGSV,2,2,08,07,17,057,24,05,53,190,28,15,40,283,30,21,18,303,16*72
$GPZDA,151235.00,21,02,2014,00,00*61
$GPGGA,151235,5225.6573,N,00402.0128,W,1,08,1.20,85.19,M,51.644,M,,*67
$GPRMC,151235,A,5225.6573,N,00402.0128,W,19.8618,202.214,210214,,*08
$GPGSA,A,3,09,05,08,26,28,07,15,21,,,,,2.6,1.2,1.9*37
$GPZDA,151236.00,21,02,2014,00,00*62
$GPGGA,151236,5225.6522,N,00402.0159,W,1,08,1.20,84.86,M,51.644,M,,*61
$GPRMC,151236,A,5225.6522,N,00402.0159,W,20.3204,203.911,210214,,*0E
$GPGSA,A,3,09,05,08,26,28,07,15,21,,,,,2.6,1.2,1.9*37
$GPZDA,151237.00,21,02,2014,00,00*63
$GPGGA,151237,5225.6479,N,00402.0181,W,1,08,1.20,84.68,M,51.645,M,,*6B
$GPRMC,151237,A,5225.6479,N,00402.0181,W,18.1681,198.943,210214,,*03
$GPGSA,A,3,09,05,08,26,28,07,15,21,,,,,2.6,1.2,1.9*37
$GPGSV,2,1,08,09,54,061,27,08,50,058,25,28,43,111,29,26,80,304,33*73
$GPGSV,2,2,08,07,17,057,24,05,53,190,29,15,40,283,30,21,18,303,15*70
$GPZDA,151238.00,21,02,2014,00,00*6C
$GPGGA,151238,5225.6436,N,00402.0213,W,1,08,1.20,84.54,M,51.645,M,,*68
$GPRMC,151238,A,5225.6436,N,00402.0213,W,20.1886,199.526,210214,,*03
$GPGSA,A,3,09,05,08,26,28,07,15,21,,,,,2.6,1.2,1.9*37
$GPZDA,151239.00,21,02,2014,00,00*6D
$GPGGA,151239,5225.6381,N,00402.0243,W,1,08,1.20,84.82,M,51.645,M,,*6C
$GPRMC,151239,A,5225.6381,N,00402.0243,W,21.7515,201.958,210214,,*0B
$GPGSA,A,3,09,05,08,26,28,07,15,21,,,,,2.6,1.2,1.9*37
$GPZDA,151240.00,21,02,2014,00,00*63
$GPGGA,151240,5225.6326,N,00402.0283,W,1,08,1.20,83.74,M,51.645,M,,*6D
$GPRMC,151240,A,5225.6326,N,00402.0283,W,23.5102,203.241,210214,,*07
$GPGSA,A,3,09,05,08,26,28,07,15,21,,,,,2.6,1.2,1.9*37
$GPGSV,2,1,08,09,54,061,30,08,50,058,28,28,43,111,30,26,80,304,34*77
$GPGSV,2,2,08,07,17,057,24,05,53,190,30,15,40,283,31,21,18,303,13*7F
$GPZDA,151241.00,21,02,2014,00,00*62
$GPGGA,151241,5225.6263,N,00402.0330,W,1,08,1.20,83.93,M,51.645,M,,*6C
$GPRMC,151241,A,5225.6263,N,00402.0330,W,25.2578,204.971,210214,,*08
$GPGSA,A,3,09,05,08,26,28,07,15,21,,,,,2.6,1.2,1.9*37
$GPZDA,151242.00,21,02,2014,00,00*61
$GPGGA,151242,5225.6197,N,00402.0377,W,1,07,1.40,83.32,M,51.645,M,,*66
$GPRMC,151242,A,5225.6197,N,00402.0377,W,27.3707,205.474,210214,,*00
$GPGSA,A,3,09,05,08,26,28,07,15,,,,,,2.6,1.4,1.9*32
$GPZDA,151243.00,21,02,2014,00,00*60
$GPGGA,151243,5225.6126,N,00402.0433,W,1,07,1.40,83.36,M,51.645,M,,*6E
$GPRMC,151243,A,5225.6126,N,00402.0433,W,29.9367,204.937,210214,,*01
$GPGSA,A,3,09,05,08,26,28,07,15,,,,,,2.6,1.4,1.9*32
$GPGSV,2,1,07,09,54,061,30,08,50,058,23,28,43,111,31,26,80,304,34*72
$GPGSV,2,2,07,07,17,057,24,05,53,190,30,15,40,283,31*48
$GPZDA,151244.00,21,02,2014,00,00*67
$GPGGA,151244,5225.6059,N,00402.0489,W,1,07,1.40,82.79,M,51.645,M,,*6B
$GPRMC,151244,A,5225.6059,N,00402.0489,W,29.0857,205.265,210214,,*02
$GPGSA,A,3,09,05,08,26,28,07,15,,,,,,2.6,1.4,1.9*32
$GPZDA,151245.00,21,02,2014,00,00*66
$GPGGA,151245,5225.5988,N,00402.0535,W,1,07,1.40,82.79,M,51.645,M,,*6A
$GPRMC,151245,A,5225.5988,N,00402.0535,W,28.6356,203.557,210214,,*0E
$GPGSA,A,3,09,05,08,26,28,07,15,,,,,,2.6,1.4,1.9*32
$GPGBS,151245,19.17,M,17.30,M,44.45,M*02
$GPZDA,151246.00,21,02,2014,00,00*65
$GPGGA,151246,5225.5914,N,00402.0582,W,1,07,1.40,82.00,M,51.645,M,,*6E
$GPRMC,151246,A,5225.5914,N,00402.0582,W,29.7924,201.909,210214,,*0E
$GPGSA,A,3,09,05,08,26,28,07,15,,,,,,2.6,1.4,1.9*32
$GPGBS,151246,19.17,M,17.30,M,44.45,M*01
$GPGSV,2,1,07,09,54,061,31,08,50,058,25,28,44,109,31,26,81,304,34*7A
$GPGSV,2,2,07,07,17,057,19,05,52,190,31,15,41,283,23*44
$GPZDA,151247.00,21,02,2014,00,00*64
$GPGGA,151247,5225.5839,N,00402.0637,W,1,07,1.40,82.65,M,51.645,M,,*6F
$GPRMC,151247,A,5225.5839,N,00402.0637,W,30.9652,202.905,210214,,*0B
$GPGSA,A,3,09,05,08,26,28,07,15,,,,,,2.6,1.4,1.9*32
$GPZDA,151248.00,21,02,2014,00,00*6B
$GPGGA,151248,5225.5757,N,00402.0691,W,1,07,1.40,81.71,M,51.646,M,,*6E
$GPRMC,151248,A,5225.5757,N,00402.0691,W,32.6831,202.854,210214,,*0C
$GPGSA,A,3,09,05,08,26,28,07,15,,,,,,2.6,1.4,1.9*32
$GPZDA,151249.00,21,02,2014,00,00*6A
$GPGGA,151249,5225.5674,N,00402.0745,W,1,07,1.40,82.18,M,51.646,M,,*6B
$GPRMC,151249,A,5225.5674,N,00402.0745,W,33.3324,202.289,210214,,*04
$GPGSA,A,3,09,05,08,26,28,07,15,,,,,,2.6,1.4,1.9*32
$GPGSV,2,1,07,09,54,061,31,08,50,058,31,28,44,109,31,26,81,304,34*7F
$GPGSV,2,2,07,07,17,057,20,05,52,190,30,15,41,283,22*4E
$GPZDA,151250.00,21,02,2014,00,00*62
$GPGGA,151250,5225.5583,N,00402.0808,W,1,07,1.40,82.51,M,51.646,M,,*63
$GPRMC,151250,A,5225.5583,N,00402.0808,W,35.4633,201.487,210214,,*08
$GPGSA,A,3,09,05,08,26,28,07,15,,,,,,2.6,1.4,1.9*32
$GPZDA,151251.00,21,02,2014,00,00*63
$GPGGA,151251,5225.5493,N,00402.0870,W,1,07,1.40,82.83,M,51.646,M,,*62
$GPRMC,151251,A,5225.5493,N,00402.0870,W,35.0489,204.430,210214,,*08
$GPGSA,A,3,09,05,08,26,28,07,15,,,,,,2.6,1.4,1.9*32
$GPZDA,151252.00,21,02,2014,00,00*60
$GPGGA,151252,5225.5414,N,00402.0934,W,1,07,1.40,82.73,M,51.646,M,,*60
$GPRMC,151252,A,5225.5414,N,00402.0934,W,33.2819,207.483,210214,,*0F
$GPGSA,A,3,09,05,08,26,28,07,15,,,,,,2.6,1.4,1.9*32
$GPGSV,2,1,07,09,54,061,32,08,50,058,18,28,44,109,32,26,81,304,35*75
$GPGSV,2,2,07,07,17,057,29,05,52,190,35,15,41,283,29*49
$GPZDA,151253.00,21,02,2014,00,00*61
$GPGGA,151253,5225.5338,N,00402.1006,W,1,07,1.40,83.47,M,51.646,M,,*67
$GPRMC,151253,A,5225.5338,N,00402.1006,W,32.4798,210.356,210214,,*06
$GPGSA,A,3,09,05,08,26,28,07,15,,,,,,2.6,1.4,1.9*32
$GPZDA,151254.00,21,02,2014,00,00*66
$GPGGA,151254,5225.5261,N,00402.1096,W,1,07,1.40,84.29,M,51.646,M,,*6B
$GPRMC,151254,A,5225.5261,N,00402.1096,W,32.8939,215.120,210214,,*0A
$GPGSA,A,3,09,05,08,26,28,07,15,,,,,,2.6,1.4,1.9*32
$GPZDA,151255.00,21,02,2014,00,00*67
$GPGGA,151255,5225.5189,N,00402.1178,W,1,07,1.40,84.46,M,51.647,M,,*66
$GPRMC,151255,A,5225.5189,N,00402.1178,W,32.9422,216.695,210214,,*03
$GPGSA,A,3,09,05,08,26,28,07,15,,,,,,2.6,1.4,1.9*32
$GPGSV,2,1,07,09,54,061,32,08,50,058,28,28,44,109,32,26,81,304,35*76
$GPGSV,2,2,07,07,17,057,17,05,52,190,36,15,41,283,21*4F
$GPZDA,151256.00,21,02,2014,00,00*64
$GPGGA,151256,5225.5114,N,00402.1268,W,1,07,1.40,83.88,M,51.647,M,,*66
$GPRMC,151256,A,5225.5114,N,00402.1268,W,33.5047,216.423,210214,,*03
$GPGSA,A,3,09,05,08,26,28,07,15,,,,,,2.6,1.4,1.9*32
$GPZDA,151257.00,21,02,2014,00,00*65
$GPGGA,151257,5225.5037,N,00402.1358,W,1,07,1.40,84.71,M,51.647,M,,*64
$GPRMC,151257,A,5225.5037,N,00402.1358,W,33.7690,216.056,210214,,*08
$GPGSA,A,3,09,05,08,26,28,07,15,,,,,,2.6,1.4,1.9*32
$GPZDA,151258.00,21,02,2014,00,00*6A
$GPGGA,151258,5225.4958,N,00402.1448,W,1,07,1.40,84.74,M,51.647,M,,*69
$GPRMC,151258,A,5225.4958,N,00402.1448,W,34.4211,214.150,210214,,*0C
$GPGSA,A,3,09,05,08,26,28,07,15,,,,,,2.6,1.4,1.9*32
$GPGSV,2,1,07,09,54,061,33,08,50,058,31,28,44,109,33,26,81,304,35*7E
$GPGSV,2,2,07,07,17,057,19,05,52,190,35,15,41,283,22*41
$GPZDA,151259.00,21,02,2014,00,00*6B
$GPGGA,151259,5225.4878,N,00402.1529,W,1,07,1.40,84.72,M,51.647,M,,*6B
$GPRMC,151259,A,5225.4878,N,00402.1529,W,34.6937,213.811,210214,,*0E
$GPGSA,A,3,09,05,08,26,28,07,15,,,,,,2.6,1.4,1.9*32
$GPZDA,151300.00,21,02,2014,00,00*66
$GPGGA,151300,5225.4794,N,00402.1619,W,1,07,1.40,85.36,M,51.648,M,,*65
$GPRMC,151300,A,5225.4794,N,00402.1619,W,35.4042,212.446,210214,,*09
$GPGSA,A,3,09,05,08,26,28,07,15,,,,,,2.6,1.4,1.9*32
$GPZDA,151301.00,21,02,2014,00,00*67
$GPGGA,151301,5225.4710,N,00402.1699,W,1,07,1.40,85.96,M,51.648,M,,*6A
$GPRMC,151301,A,5225.4710,N,00402.1699,W,35.2779,211.614,210214,,*03
$GPGSA,A,3,09,05,08,26,28,07,15,,,,,,2.6,1.4,1.9*32
$GPGSV,2,1,07,09,54,061,33,08,50,058,31,28,44,109,32,26,81,304,35*7F
$GPGSV,2,2,07,07,17,057,24,05,52,190,35,15,41,283,34*48
$GPZDA,151302.00,21,02,2014,00,00*64
$GPGGA,151302,5225.4631,N,00402.1780,W,1,07,1.40,85.95,M,51.648,M,,*61
$GPRMC,151302,A,5225.4631,N,00402.1780,W,34.8673,210.632,210214,,*0E
$GPGSA,A,3,09,05,08,26,28,07,15,,,,,,2.6,1.4,1.9*32
$GPZDA,151303.00,21,02,2014,00,00*65
$GPGGA,151303,5225.4550,N,00402.1861,W,1,07,1.40,87.33,M,51.648,M,,*6A
$GPRMC,151303,A,5225.4550,N,00402.1861,W,33.4753,210.217,210214,,*00
$GPGSA,A,3,09,05,08,26,28,07,15,,,,,,2.6,1.4,1.9*32
$GPZDA,151304.00,21,02,2014,00,00*62
$GPGGA,151304,5225.4471,N,00402.1933,W,1,07,1.40,87.28,M,51.648,M,,*63
$GPRMC,151304,A,5225.4471,N,00402.1933,W,31.7694,210.163,210214,,*08
$GPGSA,A,3,09,05,08,26,28,07,15,,,,,,2.6,1.4,1.9*32
$GPGSV,2,1,07,09,54,061,33,08,50,058,30,28,44,109,32,26,81,304,35*7E
$GPGSV,2,2,07,07,17,057,26,05,52,190,30,15,41,283,32*49
$GPZDA,151305.00,21,02,2014,00,00*63
$GPGGA,151305,5225.4400,N,00402.1989,W,1,07,1.40,87.32,M,51.648,M,,*6E
$GPRMC,151305,A,5225.4400,N,00402.1989,W,30.1317,205.674,210214,,*02
$GPGSA,A,3,09,05,08,26,28,07,15,,,,,,2.6,1.4,1.9*32
$GPZDA,151306.00,21,02,2014,00,00*60
$GPGGA,151306,5225.4325,N,00402.2035,W,1,07,1.40,87.93,M,51.648,M,,*6B
$GPRMC,151306,A,5225.4325,N,00402.2035,W,28.0171,197.589,210214,,*0F
$GPGSA,A,3,09,05,08,26,28,07,15,,,,,,2.6,1.4,1.9*32
$GPZDA,151307.00,21,02,2014,00,00*61
$GPGGA,151307,5225.4251,N,00402.2054,W,1,06,1.40,88.41,M,51.648,M,,*6E
$GPRMC,151307,A,5225.4251,N,00402.2054,W,26.7547,190.440,210214,,*00
$GPGSA,A,3,09,05,08,26,28,15,,,,,,,2.6,1.4,1.9*35
$GPGSV,2,1,08,09,54,061,32,08,50,058,30,28,44,109,32,26,81,304,35*70
$GPGSV,2,2,08,07,17,057,12,05,52,190,34,15,41,283,35,19,05,033,19*77
$GPZDA,151308.00,21,02,2014,00,00*6E
$GPGGA,151308,5225.4178,N,00402.2074,W,1,06,1.40,87.49,M,51.648,M,,*6C
$GPRMC,151308,A,5225.4178,N,00402.2074,W,26.2170,186.941,210214,,*0B
$GPGSA,A,3,09,05,08,26,28,15,,,,,,,2.6,1.4,1.9*35
$GPZDA,151309.00,21,02,2014,00,00*6F
$GPGGA,151309,5225.4108,N,00402.2086,W,1,07,1.40,87.32,M,51.649,M,,*6B
$GPRMC,151309,A,5225.4108,N,00402.2086,W,25.5449,184.431,210214,,*03
$GPGSA,A,3,09,05,08,26,28,07,15,,,,,,2.6,1.4,1.9*32
$GPGBS,151309,19.17,M,17.30,M,44.45,M*0B
$GPZDA,151310.00,21,02,2014,00,00*67
$GPGGA,151310,5225.4035,N,00402.2088,W,1,07,1.40,87.71,M,51.649,M,,*65
$GPRMC,151310,A,5225.4035,N,00402.2088,W,25.1329,184.028,210214,,*03
$GPGSA,A,3,09,05,08,26,28,07,15,,,,,,2.6,1.4,1.9*32
$GPGBS,151310,19.17,M,17.30,M,44.45,M*03
$GPGSV,2,1,07,09,53,061,32,08,50,058,30,28,44,109,27,26,81,306,35*7E
$GPGSV,2,2,07,07,17,057,15,05,52,190,34,15,41,285,35*4C
$GPZDA,151311.00,21,02,2014,00,00*66
$GPGGA,151311,5225.3973,N,00402.2100,W,1,07,1.40,87.72,M,51.649,M,,*6A
$GPRMC,151311,A,5225.3973,N,00402.2100,W,24.6044,184.194,210214,,*07
$GPGSA,A,3,09,05,08,26,28,07,15,,,,,,2.6,1.4,1.9*32
$GPZDA,151312.00,21,02,2014,00,00*65
$GPGGA,151312,5225.3903,N,00402.2111,W,1,08,1.20,87.55,M,51.649,M,,*62
$GPRMC,151312,A,5225.3903,N,00402.2111,W,23.9911,184.466,210214,,*0A
$GPGSA,A,3,09,05,08,26,24,28,07,15,,,,,2.6,1.2,1.9*32
$GPZDA,151313.00,21,02,2014,00,00*64
$GPGGA,151313,5225.3835,N,00402.2123,W,1,08,1.20,85.98,M,51.649,M,,*65
$GPRMC,151313,A,5225.3835,N,00402.2123,W,23.3711,185.391,210214,,*04
$GPGSA,A,3,09,05,08,26,24,28,07,15,,,,,2.6,1.2,1.9*32
$GPGSV,3,1,09,09,53,061,26,08,50,058,28,28,44,109,27,26,81,306,35*7D
$GPGSV,3,2,09,07,17,057,16,05,52,190,34,24,06,234,31,15,41,285,35*77
$GPGSV,3,3,09,21,18,303,16*4D
$GPZDA,151314.00,21,02,2014,00,00*63
$GPGGA,151314,5225.3774,N,00402.2136,W,1,09,1.00,84.59,M,51.649,M,,*63
$GPRMC,151314,A,5225.3774,N,00402.2136,W,22.5184,190.802,210214,,*05
$GPGSA,A,3,09,05,08,26,24,28,07,15,21,,,,2.6,1.0,1.9*33
$GPZDA,151315.00,21,02,2014,00,00*62
$GPGGA,151315,5225.3716,N,00402.2167,W,1,09,1.00,82.68,M,51.649,M,,*66
$GPRMC,151315,A,5225.3716,N,00402.2167,W,22.7478,196.480,210214,,*00
$GPGSA,A,3,09,05,08,26,24,28,07,15,21,,,,2.6,1.0,1.9*33
$GPGBS,151315,19.17,M,17.30,M,44.45,M*06
$GPZDA,151316.00,21,02,2014,00,00*61
$GPGGA,151316,5225.3662,N,00402.2215,W,1,09,1.00,81.65,M,51.649,M,,*6F
$GPRMC,151316,A,5225.3662,N,00402.2215,W,22.4002,204.897,210214,,*0F
$GPGSA,A,3,09,05,08,26,24,28,07,15,21,,,,2.6,1.0,1.9*33
$GPGBS,151316,19.17,M,17.30,M,44.45,M*05
$GPGSV,3,1,09,09,53,061,27,08,50,058,20,28,44,109,31,26,81,306,35*73
$GPGSV,3,2,09,07,17,057,15,05,52,190,34,24,06,234,22,15,41,285,36*75
$GPGSV,3,3,09,21,18,303,24*4C
$GPZDA,151317.00,21,02,2014,00,00*60
$GPGGA,151317,5225.3604,N,00402.2263,W,1,09,1.00,79.83,M,51.649,M,,*60
$GPRMC,151317,A,5225.3604,N,00402.2263,W,22.6240,211.082,210214,,*01
$GPGSA,A,3,09,05,08,26,24,28,07,15,21,,,,2.6,1.0,1.9*33
$GPZDA,151318.00,21,02,2014,00,00*6F
$GPGGA,151318,5225.3549,N,00402.2321,W,1,09,1.00,78.84,M,51.649,M,,*64
$GPRMC,151318,A,5225.3549,N,00402.2321,W,23.3531,214.997,210214,,*0E
$GPGSA,A,3,09,05,08,26,24,28,07,15,21,,,,2.6,1.0,1.9*33
$GPZDA,151319.00,21,02,2014,00,00*6E
$GPGGA,151319,5225.3494,N,00402.2387,W,1,08,1.20,77.89,M,51.649,M,,*69
$GPRMC,151319,A,5225.3494,N,00402.2387,W,24.0421,214.454,210214,,*04
$GPGSA,A,3,09,05,08,26,24,28,15,21,,,,,2.6,1.2,1.9*36
$GPGSV,3,1,09,09,53,061,34,08,50,058,28,28,44,109,33,26,81,306,35*7B
$GPGSV,3,2,09,07,17,057,14,05,52,190,29,24,06,234,20,15,41,285,36*7A
$GPGSV,3,3,09,21,18,303,25*4D
$GPZDA,151320.00,21,02,2014,00,00*64
$GPGGA,151320,5225.3439,N,00402.2444,W,1,08,1.20,76.90,M,51.649,M,,*65
$GPRMC,151320,A,5225.3439,N,00402.2444,W,23.6318,212.962,210214,,*03
$GPGSA,A,3,09,05,08,26,24,28,15,21,,,,,2.6,1.2,1.9*36
$GPZDA,151321.00,21,02,2014,00,00*65
$GPGGA,151321,5225.3384,N,00402.2501,W,1,08,1.20,75.91,M,51.649,M,,*67
$GPRMC,151321,A,5225.3384,N,00402.2501,W,23.9088,212.483,210214,,*04
$GPGSA,A,3,09,05,08,26,24,28,15,21,,,,,2.6,1.2,1.9*36
$GPZDA,151322.00,21,02,2014,00,00*66
$GPGGA,151322,5225.3329,N,00402.2558,W,1,09,1.00,74.92,M,51.650,M,,*66
$GPRMC,151322,A,5225.3329,N,00402.2558,W,23.3848,210.457,210214,,*09
$GPGSA,A,3,09,05,08,26,24,28,07,15,21,,,,2.6,1.0,1.9*33
$GPGSV,3,1,09,09,53,061,33,08,50,058,23,28,44,109,34,26,81,306,35*70
$GPGSV,3,2,09,07,17,057,26,05,52,190,30,24,06,234,19,15,41,285,36*79
$GPGSV,3,3,09,21,18,303,26*4E
$GPZDA,151323.00,21,02,2014,00,00*67
$GPGGA,151323,5225.3266,N,00402.2606,W,1,09,1.00,73.71,M,51.650,M,,*6F
$GPRMC,151323,A,5225.3266,N,00402.2606,W,23.2792,205.682,210214,,*0D
$GPGSA,A,3,09,05,08,26,24,28,07,15,21,,,,2.6,1.0,1.9*33
$GPZDA,151324.00,21,02,2014,00,00*60
$GPGGA,151324,5225.3208,N,00402.2645,W,1,08,1.20,73.24,M,51.650,M,,*64
$GPRMC,151324,A,5225.3208,N,00402.2645,W,23.6482,200.564,210214,,*0D
$GPGSA,A,3,09,05,08,26,28,07,15,21,,,,,2.6,1.2,1.9*37
$GPZDA,151325.00,21,02,2014,00,00*61
$GPGGA,151325,5225.3145,N,00402.2675,W,1,07,1.40,73.34,M,51.650,M,,*64
$GPRMC,151325,A,5225.3145,N,00402.2675,W,23.0532,196.617,210214,,*02
$GPGSA,A,3,09,05,08,26,28,15,21,,,,,,2.6,1.4,1.9*36
$GPGSV,3,1,09,09,53,061,33,08,50,058,26,28,44,109,33,26,81,306,36*71
$GPGSV,3,2,09,07,17,057,18,05,52,190,36,24,06,234,21,15,41,285,36*79
$GPGSV,3,3,09,21,18,303,26*4E
$GPZDA,151326.00,21,02,2014,00,00*62
$GPGGA,151326,5225.3087,N,00402.2705,W,1,09,1.00,72.83,M,51.650,M,,*69
$GPRMC,151326,A,5225.3087,N,00402.2705,W,22.5988,194.408,210214,,*0F
$GPGSA,A,3,09,05,08,26,24,28,07,15,21,,,,2.6,1.0,1.9*33
$GPZDA,151327.00,21,02,2014,00,00*63
$GPGGA,151327,5225.3025,N,00402.2726,W,1,09,1.00,72.89,M,51.650,M,,*6B
$GPRMC,151327,A,5225.3025,N,00402.2726,W,22.4567,193.227,210214,,*07
$GPGSA,A,3,09,05,08,26,24,28,07,15,21,,,,2.6,1.0,1.9*33
$GPZDA,151328.00,21,02,2014,00,00*6C
$GPGGA,151328,5225.2966,N,00402.2756,W,1,09,1.00,72.38,M,51.650,M,,*66
$GPRMC,151328,A,5225.2966,N,00402.2756,W,22.3124,193.314,210214,,*05
$GPGSA,A,3,09,05,08,26,24,28,07,15,21,,,,2.6,1.0,1.9*33
$GPGSV,3,1,09,09,53,061,32,08,50,058,28,28,44,109,33,26,81,306,36*7E
$GPGSV,3,2,09,07,17,057,18,05,52,190,37,24,06,234,17,15,41,285,37*7C
$GPGSV,3,3,09,21,18,303,26*4E
$GPZDA,151329.00,21,02,2014,00,00*6D
$GPGGA,151329,5225.2904,N,00402.2777,W,1,09,1.00,72.43,M,51.650,M,,*6C
$GPRMC,151329,A,5225.2904,N,00402.2777,W,22.6734,194.993,210214,,*03
$GPGSA,A,3,09,05,08,26,24,28,07,15,21,,,,2.6,1.0,1.9*33
$GPZDA,151330.00,21,02,2014,00,00*65
$GPGGA,151330,5225.2849,N,00402.2816,W,1,09,1.00,72.76,M,51.650,M,,*62
$GPRMC,151330,A,5225.2849,N,00402.2816,W,22.2686,198.670,210214,,*09
$GPGSA,A,3,09,05,08,26,24,28,07,15,21,,,,2.6,1.0,1.9*33
$GPZDA,151331.00,21,02,2014,00,00*64
$GPGGA,151331,5225.2790,N,00402.2855,W,1,09,1.00,72.29,M,51.650,M,,*65
$GPRMC,151331,A,5225.2790,N,00402.2855,W,22.8594,203.464,210214,,*08
$GPGSA,A,3,09,05,08,26,24,28,07,15,21,,,,2.6,1.0,1.9*33
$GPGSV,3,1,09,09,53,061,27,08,50,058,19,28,44,109,33,26,81,306,35*7B
$GPGSV,3,2,09,07,17,057,27,05,52,190,37,24,06,234,17,15,41,285,36*71
$GPGSV,3,3,09,21,18,303,22*4A
$GPZDA,151332.00,21,02,2014,00,00*67
$GPGGA,151332,5225.2731,N,00402.2903,W,1,09,1.00,71.87,M,51.650,M,,*68
$GPRMC,151332,A,5225.2731,N,00402.2903,W,23.2532,207.046,210214,,*05
$GPGSA,A,3,09,05,08,26,24,28,07,15,21,,,,2.6,1.0,1.9*33
$GPZDA,151333.00,21,02,2014,00,00*66
$GPGGA,151333,5225.2676,N,00402.2960,W,1,09,1.00,70.88,M,51.650,M,,*60
$GPRMC,151333,A,5225.2676,N,00402.2960,W,23.8528,211.735,210214,,*06
$GPGSA,A,3,09,05,08,26,24,28,07,15,21,,,,2.6,1.0,1.9*33
$GPZDA,151334.00,21,02,2014,00,00*61
$GPGGA,151334,5225.2620,N,00402.3017,W,1,09,1.00,71.29,M,51.650,M,,*66
$GPRMC,151334,A,5225.2620,N,00402.3017,W,23.4480,212.399,210214,,*04
$GPGSA,A,3,09,05,08,26,24,28,07,15,21,,,,2.6,1.0,1.9*33
$GPGSV,3,1,09,09,53,061,29,08,50,058,28,28,44,109,27,26,81,306,36*71
$GPGSV,3,2,09,07,17,057,18,05,52,190,31,24,06,234,16,15,41,285,36*7A
$GPGSV,3,3,09,21,18,303,25*4D
$GPZDA,151335.00,21,02,2014,00,00*60
$GPGGA,151335,5225.2565,N,00402.3074,W,1,09,1.00,70.30,M,51.651,M,,*68
$GPRMC,151335,A,5225.2565,N,00402.3074,W,23.6860,211.345,210214,,*00
$GPGSA,A,3,09,05,08,26,24,28,07,15,21,,,,2.6,1.0,1.9*33
$GPZDA,151336.00,21,02,2014,00,00*63
$GPGGA,151336,5225.2510,N,00402.3131,W,1,09,1.00,69.32,M,51.651,M,,*63
$GPRMC,151336,A,5225.2510,N,00402.3131,W,23.4110,213.262,210214,,*0B
$GPGSA,A,3,09,05,08,26,24,28,07,15,21,,,,2.6,1.0,1.9*33
$GPZDA,151337.00,21,02,2014,00,00*62
$GPGGA,151337,5225.2454,N,00402.3188,W,1,09,1.00,69.73,M,51.651,M,,*64
$GPRMC,151337,A,5225.2454,N,00402.3188,W,22.8880,211.903,210214,,*0A
$GPGSA,A,3,09,05,08,26,24,28,07,15,21,,,,2.6,1.0,1.9*33
$GPGSV,3,1,09,09,53,061,30,08,50,058,32,28,44,109,30,26,81,306,36*74
$GPGSV,3,2,09,07,17,057,17,05,52,190,32,24,06,234,15,15,41,285,36*75
$GPGSV,3,3,09,21,18,303,28*40
$GPZDA,151338.00,21,02,2014,00,00*6D
$GPGGA,151338,5225.2403,N,00402.3236,W,1,09,1.00,69.49,M,51.651,M,,*66
$GPRMC,151338,A,5225.2403,N,00402.3236,W,22.3429,212.093,210214,,*06
$GPGSA,A,3,09,05,08,26,24,28,07,15,21,,,,2.6,1.0,1.9*33
$GPZDA,151339.00,21,02,2014,00,00*6C
$GPGGA,151339,5225.2355,N,00402.3293,W,1,09,1.00,70.09,M,51.651,M,,*60
$GPRMC,151339,A,5225.2355,N,00402.3293,W,20.8063,212.607,210214,,*04
$GPGSA,A,3,09,05,08,26,24,28,07,15,21,,,,2.6,1.0,1.9*33
$GPGBS,151339,19.17,M,17.30,M,44.45,M*08
$GPZDA,151340.00,21,02,2014,00,00*62
$GPGGA,151340,5225.2308,N,00402.3342,W,1,09,1.00,69.24,M,51.651,M,,*6C
$GPRMC,151340,A,5225.2308,N,00402.3342,W,19.5609,211.692,210214,,*0D
$GPGSA,A,3,09,05,08,26,24,28,07,15,21,,,,2.6,1.0,1.9*33
$GPGBS,151340,19.17,M,17.30,M,44.45,M*06
$GPGSV,3,1,09,09,53,061,32,08,49,058,33,28,44,109,31,26,81,306,36*7E
$GPGSV,3,2,09,07,16,057,24,05,52,190,32,24,06,234,14,15,41,285,36*75
$GPGSV,3,3,09,21,18,303,16*4D
$GPZDA,151341.00,21,02,2014,00,00*63
$GPGGA,151341,5225.2260,N,00402.3382,W,1,09,1.00,69.75,M,51.651,M,,*6A
$GPRMC,151341,A,5225.2260,N,00402.3382,W,19.0038,211.075,210214,,*01
$GPGSA,A,3,09,05,08,26,24,28,07,15,21,,,,2.6,1.0,1.9*33
$GPZDA,151342.00,21,02,2014,00,00*60
$GPGGA,151342,5225.2219,N,00402.3431,W,1,09,1.00,70.49,M,51.651,M,,*6F
$GPRMC,151342,A,5225.2219,N,00402.3431,W,19.1415,211.675,210214,,*0F
$GPGSA,A,3,09,05,08,26,24,28,07,15,21,,,,2.6,1.0,1.9*33
$GPZDA,151343.00,21,02,2014,00,00*61
$GPGGA,151343,5225.2175,N,00402.3480,W,1,09,1.00,70.43,M,51.651,M,,*67
$GPRMC,151343,A,5225.2175,N,00402.3480,W,19.1284,212.617,210214,,*04
$GPGSA,A,3,09,05,08,26,24,28,07,15,21,,,,2.6,1.0,1.9*33
$GPGSV,3,1,09,09,53,061,32,08,49,058,31,28,44,109,32,26,81,306,36*7F
$GPGSV,3,2,09,07,16,057,24,05,52,190,31,24,06,234,14,15,41,285,30*70
$GPGSV,3,3,09,21,18,303,17*4C
$GPZDA,151344.00,21,02,2014,00,00*66
$GPGGA,151344,5225.2124,N,00402.3529,W,1,09,1.00,70.19,M,51.652,M,,*6A
$GPRMC,151344,A,5225.2124,N,00402.3529,W,19.9983,210.807,210214,,*0C
$GPGSA,A,3,09,05,08,26,24,28,07,15,21,,,,2.6,1.0,1.9*33
$GPZDA,151345.00,21,02,2014,00,00*67
$GPGGA,151345,5225.2076,N,00402.3577,W,1,09,1.00,70.75,M,51.652,M,,*6C
$GPRMC,151345,A,5225.2076,N,00402.3577,W,20.1257,210.591,210214,,*02
$GPGSA,A,3,09,05,08,26,24,28,07,15,21,,,,2.6,1.0,1.9*33
$GPZDA,151346.00,21,02,2014,00,00*64
$GPGGA,151346,5225.2032,N,00402.3617,W,1,08,1.20,70.65,M,51.652,M,,*68
$GPRMC,151346,A,5225.2032,N,00402.3617,W,19.0253,210.127,210214,,*02
$GPGSA,A,3,09,05,08,26,28,07,15,21,,,,,2.6,1.2,1.9*37
$GPGSV,2,1,08,09,53,061,32,08,49,058,30,28,44,109,32,26,81,306,36*7E
$GPGSV,2,2,08,07,16,057,24,05,52,190,29,15,41,285,33,21,18,303,16*77
$GPZDA,151347.00,21,02,2014,00,00*65
$GPGGA,151347,5225.1989,N,00402.3658,W,1,08,1.20,70.55,M,51.652,M,,*6B
$GPRMC,151347,A,5225.1989,N,00402.3658,W,17.7387,210.079,210214,,*09
$GPGSA,A,3,09,05,08,26,28,07,15,21,,,,,2.6,1.2,1.9*37
$GPZDA,151348.00,21,02,2014,00,00*6A
$GPGGA,151348,5225.1948,N,00402.3707,W,1,08,1.20,71.29,M,51.652,M,,*68
$GPRMC,151348,A,5225.1948,N,00402.3707,W,18.1651,211.009,210214,,*01
$GPGSA,A,3,09,05,08,26,28,07,15,21,,,,,2.6,1.2,1.9*37
$GPZDA,151349.00,21,02,2014,00,00*6B
$GPGGA,151349,5225.1905,N,00402.3747,W,1,08,1.20,71.19,M,51.652,M,,*67
$GPRMC,151349,A,5225.1905,N,00402.3747,W,18.3173,212.504,210214,,*03
$GPGSA,A,3,09,05,08,26,28,07,15,21,,,,,2.6,1.2,1.9*37
$GPGSV,2,1,08,09,53,061,32,08,49,058,31,28,44,109,33,26,81,306,36*7E
$GPGSV,2,2,08,07,16,057,21,05,52,190,30,15,41,285,34,21,18,303,22*7A
$GPZDA,151350.00,21,02,2014,00,00*63
$GPGGA,151350,5225.1857,N,00402.3795,W,1,08,1.20,71.74,M,51.652,M,,*6D
$GPRMC,151350,A,5225.1857,N,00402.3795,W,18.7646,212.387,210214,,*0A
$GPGSA,A,3,09,05,08,26,28,07,15,21,,,,,2.6,1.2,1.9*37
$GPZDA,151351.00,21,02,2014,00,00*62
$GPGGA,151351,5225.1816,N,00402.3844,W,1,08,1.20,72.48,M,51.652,M,,*66
$GPRMC,151351,A,5225.1816,N,00402.3844,W,18.3325,214.353,210214,,*06
$GPGSA,A,3,09,05,08,26,28,07,15,21,,,,,2.6,1.2,1.9*37
$GPZDA,151352.00,21,02,2014,00,00*61
$GPGGA,151352,5225.1776,N,00402.3893,W,1,08,1.20,73.22,M,51.652,M,,*6B
$GPRMC,151352,A,5225.1776,N,00402.3893,W,19.0487,214.522,210214,,*0B
$GPGSA,A,3,09,05,08,26,28,07,15,21,,,,,2.6,1.2,1.9*37
$GPGSV,2,1,08,09,53,061,32,08,49,058,31,28,44,109,31,26,81,306,36*7C
$GPGSV,2,2,08,07,16,057,19,05,52,190,30,15,41,285,34,21,18,303,17*77
$GPZDA,151353.00,21,02,2014,00,00*60
$GPGGA,151353,5225.1732,N,00402.3943,W,1,08,1.20,73.17,M,51.652,M,,*60
$GPRMC,151353,A,5225.1732,N,00402.3943,W,20.0138,213.294,210214,,*00
