$GPGSA,A,3,28,09,26,15,08,05,21,24,07,,,,1.6,1.0,1.3*3A
$GPRMC,151018.000,A,5225.9627,N,00401.1624,W,0.11,104.71,210214,,*14
$GPGGA,151019.000,5225.9627,N,00401.1624,W,1,09,1.0,38.9,M,51.1,M,,0000*72
$GPGSA,A,3,28,09,26,15,08,05,21,24,07,,,,1.6,1.0,1.3*3A
$GPGSV,3,1,12,26,80,302,44,09,55,063,40,05,53,191,39,08,51,059,37*79
$GPGSV,3,2,12,28,43,112,34,15,40,284,42,21,18,305,33,07,18,057,27*7E
$GPGSV,3,3,12,10,05,153,,24,05,234,38,18,05,318,22,19,05,035,*79
$GPRMC,151019.000,A,5225.9627,N,00401.1624,W,0.10,105.97,210214,,*1D
$GPGGA,151020.000,5225.9627,N,00401.1624,W,1,09,1.0,38.9,M,51.1,M,,0000*78
$GPGSA,A,3,28,09,26,15,08,05,21,24,07,,,,1.6,1.0,1.3*3A
$GPRMC,151020.000,A,5225.9627,N,00401.1624,W,0.12,105.18,210214,,*12
$GPGSA,A,3,28,09,26,15,08,05,21,24,07,,,,1.6,1.0,1.3*3A
$GPRMC,151021.000,A,5225.9626,N,00401.1624,W,0.11,99.26,210214,,*28
$GPGGA,151022.000,5225.9626,N,00401.1623,W,1,09,1.0,38.9,M,51.1,M,,0000*7C
$GPGSA,A,3,28,09,26,15,08,05,21,24,07,,,,1.6,1.0,1.3*3A
$GPRMC,151022.000,A,5225.9626,N,00401.1623,W,0.11,109.69,210214,,*1F
$GPGGA,151023.000,5225.9626,N,00401.1623,W,1,09,1.0,38.8,M,51.1,M,,0000*7C
$GPGSA,A,3,28,09,26,15,08,05,21,24,07,,,,1.6,1.0,1.3*3A
$GPRMC,151023.000,A,5225.9626,N,00401.1623,W,0.12,106.11,210214,,*1D
$GPGGA,151024.000,5225.9626,N,00401.1623,W,1,09,1.0,38.8,M,51.1,M,,0000*7B
$GPGSA,A,3,28,09,26,15,08,05,21,24,07,,,,1.6,1.0,1.3*3A
$GPGSV,3,1,12,26,80,302,44,09,55,063,40,05,53,191,39,08,51,059,37*79
$GPGSV,3,2,12,28,43,112,34,15,40,284,42,21,18,305,33,07,18,057,28*71
$GPGSV,3,3,12,10,05,153,,24,05,234,39,18,05,318,22,19,05,035,*78
$GPRMC,151024.000,A,5225.9626,N,00401.1623,W,0.11,105.76,210214,,*1B
$GPGGA,151025.000,5225.9626,N,00401.1623,W,1,09,1.0,38.8,M,51.1,M,,0000*7A
$GPGSA,A,3,28,09,26,15,08,05,21,24,07,,,,1.6,1.0,1.3*3A
$GPRMC,151025.000,A,5225.9626,N,00401.1623,W,0.12,109.32,210214,,*15
$GPGGA,151026.000,5225.9626,N,00401.1623,W,1,09,1.0,38.8,M,51.1,M,,0000*79
$GPGSA,A,3,28,09,26,15,08,05,21,24,07,,,,1.6,1.0,1.3*3A
$GPRMC,151026.000,A,5225.9626,N,00401.1623,W,0.11,103.54,210214,,*1F
$GPGGA,151027.000,5225.9626,N,00401.1623,W,1,09,1.0,38.8,M,51.1,M,,0000*78
$GPGSA,A,3,28,09,26,15,08,05,21,24,07,,,,1.6,1.0,1.3*3A
$GPRMC,151027.000,A,5225.9626,N,00401.1623,W,0.12,116.43,210214,,*1F
$GPGGA,151028.000,5225.9626,N,00401.1623,W,1,09,1.0,38.8,M,51.1,M,,0000*77
$GPGSA,A,3,28,09,26,15,08,05,21,24,07,,,,1.6,1.0,1.3*3A
$GPRMC,151028.000,A,5225.9626,N,00401.1623,W,0.10,114.70,210214,,*10
$GPGGA,151029.000,5225.9626,N,00401.1623,W,1,09,1.0,38.8,M,51.1,M,,0000*76
$GPGSA,A,3,28,09,26,15,08,05,21,24,07,,,,1.6,1.0,1.3*3A
$GPGSV,3,1,12,26,80,302,44,09,55,063,40,05,53,191,39,08,51,059,37*79
$GPGSV,3,2,12,28,43,112,34,15,40,284,42,21,18,305,33,07,18,057,25*7C
$GPGSV,3,3,12,10,05,153,,24,05,234,39,18,05,318,24,19,05,035,*7E
$GPRMC,151029.000,A,5225.9626,N,00401.1623,W,0.10,112.33,210214,,*10
$GPGGA,151030.000,5225.9625,N,00401.1623,W,1,09,1.0,38.9,M,51.1,M,,0000*7C
$GPGSA,A,3,28,09,26,15,08,05,21,24,07,,,,1.6,1.0,1.3*3A
$GPRMC,151030.000,A,5225.9625,N,00401.1623,W,0.09,115.78,210214,,*1B
$GPGGA,151031.000,5225.9625,N,00401.1623,W,1,09,1.0,38.9,M,51.1,M,,0000*7D
$GPGSA,A,3,28,09,26,15,08,05,21,24,07,,,,1.6,1.0,1.3*3A
$GPRMC,151031.000,A,5225.9625,N,00401.1623,W,0.11,172.05,210214,,*18
$GPGGA,151032.000,5225.9624,N,00401.1625,W,1,09,1.0,39.0,M,51.1,M,,0000*71
$GPGSA,A,3,28,09,26,15,08,05,21,24,07,,,,1.6,1.0,1.3*3A
$GPRMC,151032.000,A,5225.9624,N,00401.1625,W,0.69,224.37,210214,,*12
$GPGGA,151033.000,5225.9621,N,00401.1630,W,1,09,1.0,39.0,M,51.1,M,,0000*71
$GPGSA,A,3,28,09,26,15,08,05,21,24,07,,,,1.6,1.0,1.3*3A
$GPRMC,151033.000,A,5225.9621,N,00401.1630,W,2.31,225.54,210214,,*19
$GPGGA,151034.000,5225.9615,N,00401.1645,W,1,09,1.0,39.7,M,51.1,M,,0000*74
$GPGSA,A,3,28,09,26,15,08,05,21,24,07,,,,1.6,1.0,1.3*3A
$GPGSV,3,1,12,26,80,302,43,09,55,063,40,05,53,191,39,08,51,059,37*7E
$GPGSV,3,2,12,28,43,112,34,15,40,284,30,21,18,305,25,07,18,057,33*79
$GPGSV,3,3,12,10,05,153,,24,05,234,37,18,05,318,34,19,05,035,*71
$GPRMC,151034.000,A,5225.9615,N,00401.1645,W,5.12,222.12,210214,,*18
$GPGGA,151035.000,5225.9604,N,00401.1668,W,1,09,1.0,40.3,M,51.1,M,,0000*70
$GPGSA,A,3,28,09,26,15,08,05,21,24,07,,,,1.6,1.0,1.3*3A
$GPRMC,151035.000,A,5225.9604,N,00401.1668,W,8.06,223.88,210214,,*1C
$GPGGA,151036.000,5225.9588,N,00401.1698,W,1,09,1.0,41.0,M,51.1,M,,0000*79
$GPGSA,A,3,28,09,26,15,08,05,21,24,07,,,,1.6,1.0,1.3*3A
$GPRMC,151036.000,A,5225.9588,N,00401.1698,W,8.58,224.00,210214,,*1B
$GPGGA,151037.000,5225.9573,N,00401.1728,W,1,09,1.0,41.7,M,51.1,M,,0000*71
$GPGSA,A,3,28,09,26,15,08,05,21,24,07,,,,1.6,1.0,1.3*3A
$GPRMC,151037.000,A,5225.9573,N,00401.1728,W,8.41,226.28,210214,,*14
$GPGGA,151038.000,5225.9555,N,00401.1759,W,1,09,1.0,41.6,M,51.1,M,,0000*7D
$GPGSA,A,3,28,09,26,15,08,05,21,24,07,,,,1.6,1.0,1.3*3A
$GPRMC,151038.000,A,5225.9555,N,00401.1759,W,9.82,228.28,210214,,*19
$GPGGA,151039.000,5225.9535,N,00401.1797,W,1,09,1.0,41.6,M,51.1,M,,0000*78
$GPGSA,A,3,28,09,26,15,08,05,21,24,07,,,,1.6,1.0,1.3*3A
$GPGSV,3,1,12,26,80,302,44,09,55,063,40,05,53,191,43,08,51,059,37*74
$GPGSV,3,2,12,28,43,112,26,15,40,284,29,21,18,305,18,07,18,057,31*7E
$GPGSV,3,3,12,10,05,153,,24,05,234,33,18,05,318,25,19,05,035,*75
$GPRMC,151039.000,A,5225.9535,N,00401.1797,W,11.79,231.53,210214,,*25
$GPGGA,151040.000,5225.9514,N,00401.1847,W,1,09,1.0,41.6,M,51.1,M,,0000*77
$GPGSA,A,3,28,09,26,15,08,05,21,24,07,,,,1.6,1.0,1.3*3A
$GPRMC,151040.000,A,5225.9514,N,00401.1847,W,14.10,235.73,210214,,*26
$GPGGA,151041.000,5225.9490,N,00401.1907,W,1,09,1.0,41.7,M,51.1,M,,0000*7F
$GPGSA,A,3,28,09,26,15,08,05,21,24,07,,,,1.6,1.0,1.3*3A
$GPRMC,151041.000,A,5225.9490,N,00401.1907,W,16.43,236.70,210214,,*2B
$GPGGA,151042.000,5225.9463,N,00401.1971,W,1,09,1.0,41.6,M,51.1,M,,0000*70
$GPGSA,A,3,28,09,26,15,08,05,21,24,07,,,,1.6,1.0,1.3*3A
$GPRMC,151042.000,A,5225.9463,N,00401.1971,W,17.56,234.63,210214,,*20
$GPGGA,151043.000,5225.9436,N,00401.2037,W,1,09,1.0,42.3,M,51.1,M,,0000*7F
$GPGSA,A,3,28,09,26,15,08,05,21,24,07,,,,1.6,1.0,1.3*3A
$GPRMC,151043.000,A,5225.9436,N,00401.2037,W,16.46,230.71,210214,,*2E
$GPGGA,151044.000,5225.9407,N,00401.2097,W,1,09,1.0,42.8,M,51.1,M,,0000*7B
$GPGSA,A,3,28,09,26,15,08,05,21,24,07,,,,1.6,1.0,1.3*3A
$GPGSV,3,1,12,26,80,302,44,09,55,063,40,05,53,191,42,08,51,059,37*75
$GPGSV,3,2,12,28,43,112,35,15,40,284,27,21,18,305,19,07,18,057,32*70
$GPGSV,3,3,12,10,05,153,,24,05,234,39,18,05,318,21,19,05,035,*7B
$GPRMC,151044.000,A,5225.9407,N,00401.2097,W,16.07,227.94,210214,,*29
$GPGGA,151045.000,5225.9376,N,00401.2153,W,1,09,1.0,43.3,M,51.1,M,,0000*78
$GPGSA,A,3,28,09,26,15,08,05,21,24,07,,,,1.6,1.0,1.3*3A
$GPRMC,151045.000,A,5225.9376,N,00401.2153,W,17.11,224.41,210214,,*2D
$GPGGA,151046.000,5225.9341,N,00401.2211,W,1,08,1.1,43.5,M,51.1,M,,0000*7C
$GPGSA,A,3,28,09,26,08,05,21,24,07,,,,,1.7,1.1,1.3*3E
$GPRMC,151046.000,A,5225.9341,N,00401.2211,W,18.55,222.25,210214,,*24
$GPGGA,151047.000,5225.9301,N,00401.2273,W,1,09,1.0,43.8,M,51.1,M,,0000*70
$GPGSA,A,3,28,09,26,15,08,05,21,24,07,,,,1.6,1.0,1.3*3A
$GPRMC,151047.000,A,5225.9301,N,00401.2273,W,20.47,221.78,210214,,*26
$GPGGA,151048.000,5225.9257,N,00401.2340,W,1,09,1.0,44.0,M,51.1,M,,0000*73
$GPGSA,A,3,28,09,26,15,08,05,21,24,07,,,,1.6,1.0,1.3*3A
$GPRMC,151048.000,A,5225.9257,N,00401.2340,W,22.04,221.84,210214,,*2C
$GPGGA,151049.000,5225.9212,N,00401.2410,W,1,09,1.0,44.1,M,51.1,M,,0000*70
$GPGSA,A,3,28,09,26,15,08,05,21,24,07,,,,1.6,1.0,1.3*3A
$GPGSV,3,1,12,26,80,303,44,09,55,062,40,05,53,191,43,08,51,059,37*74
$GPGSV,3,2,12,28,43,111,36,15,40,284,32,21,18,304,20,07,18,057,31*7C
$GPGSV,3,3,12,24,05,234,32,18,05,318,27,19,05,034,,10,05,153,*77
$GPRMC,151049.000,A,5225.9212,N,00401.2410,W,22.11,222.71,210214,,*23
$GPGGA,151050.000,5225.9168,N,00401.2481,W,1,09,1.0,44.1,M,51.1,M,,0000*7E
$GPGSA,A,3,28,09,26,15,08,05,21,24,07,,,,1.6,1.0,1.3*3A
$GPRMC,151050.000,A,5225.9168,N,00401.2481,W,21.64,223.42,210214,,*2D
$GPGGA,151051.000,5225.9125,N,00401.2549,W,1,09,1.0,44.2,M,51.1,M,,0000*70
$GPGSA,A,3,28,09,26,15,08,05,21,24,07,,,,1.6,1.0,1.3*3A
$GPRMC,151051.000,A,5225.9125,N,00401.2549,W,20.94,223.20,210214,,*2A
$GPGGA,151052.000,5225.9084,N,00401.2617,W,1,09,1.0,44.1,M,51.1,M,,0000*72
$GPGSA,A,3,28,09,26,15,08,05,21,24,07,,,,1.6,1.0,1.3*3A
$GPRMC,151052.000,A,5225.9084,N,00401.2617,W,20.79,225.84,210214,,*20
$GPGGA,151053.000,5225.9045,N,00401.2688,W,1,09,1.0,43.9,M,51.1,M,,0000*77
$GPGSA,A,3,28,09,26,15,08,05,21,24,07,,,,1.6,1.0,1.3*3A
$GPRMC,151053.000,A,5225.9045,N,00401.2688,W,20.62,229.27,210214,,*25
$GPGGA,151054.000,5225.9009,N,00401.2762,W,1,09,1.0,43.5,M,51.1,M,,0000*71
$GPGSA,A,3,28,09,26,15,08,05,21,24,07,,,,1.6,1.0,1.3*3A
$GPGSV,3,1,12,26,80,303,43,09,55,062,29,05,53,191,43,08,51,059,32*79
$GPGSV,3,2,12,28,43,111,36,15,40,284,36,21,18,304,33,07,18,057,24*7E
$GPGSV,3,3,12,24,05,234,33,18,05,318,23,19,05,034,,10,05,153,*72
$GPRMC,151054.000,A,5225.9009,N,00401.2762,W,20.61,230.09,210214,,*28
$GPGGA,151055.000,5225.8972,N,00401.2835,W,1,09,1.0,43.0,M,51.1,M,,0000*7C
$GPGSA,A,3,28,09,26,15,08,05,21,24,07,,,,1.6,1.0,1.3*3A
$GPRMC,151055.000,A,5225.8972,N,00401.2835,W,20.73,229.54,210214,,*23
$GPGGA,151056.000,5225.8934,N,00401.2908,W,1,09,1.0,42.6,M,51.1,M,,0000*75
$GPGSA,A,3,28,09,26,15,08,05,21,24,07,,,,1.6,1.0,1.3*3A
$GPRMC,151056.000,A,5225.8934,N,00401.2908,W,20.72,228.98,210214,,*2D
$GPGGA,151057.000,5225.8896,N,00401.2978,W,1,09,1.0,42.2,M,51.1,M,,0000*7E
$GPGSA,A,3,28,09,26,15,08,05,21,24,07,,,,1.6,1.0,1.3*3A
$GPRMC,151057.000,A,5225.8896,N,00401.2978,W,20.43,228.17,210214,,*27
$GPGGA,151058.000,5225.8858,N,00401.3047,W,1,09,1.0,41.9,M,51.1,M,,0000*7F
$GPGSA,A,3,28,09,26,15,08,05,21,24,07,,,,1.6,1.0,1.3*3A
$GPRMC,151058.000,A,5225.8858,N,00401.3047,W,19.92,227.19,210214,,*29
$GPGGA,151059.000,5225.8822,N,00401.3111,W,1,09,1.0,41.6,M,51.1,M,,0000*7E
$GPGSA,A,3,28,09,26,15,08,05,21,24,07,,,,1.6,1.0,1.3*3A
$GPGSV,3,1,12,26,80,303,43,09,55,062,16,05,53,191,43,08,51,059,27*71
$GPGSV,3,2,12,28,43,111,37,15,40,284,35,21,18,304,34,07,18,057,25*7A
$GPGSV,3,3,12,24,05,234,27,18,05,318,27,19,05,034,,10,05,153,*73
$GPRMC,151059.000,A,5225.8822,N,00401.3111,W,18.00,226.65,210214,,*27
$GPGGA,151100.000,5225.8790,N,00401.3167,W,1,09,1.0,41.5,M,51.1,M,,0000*77
$GPGSA,A,3,28,09,26,15,08,05,21,24,07,,,,1.6,1.0,1.3*3A
$GPRMC,151100.000,A,5225.8790,N,00401.3167,W,15.34,227.37,210214,,*21
$GPGGA,151101.000,5225.8764,N,00401.3215,W,1,09,1.0,41.3,M,51.1,M,,0000*7D
$GPGSA,A,3,28,09,26,15,08,05,21,24,07,,,,1.6,1.0,1.3*3A
$GPRMC,151101.000,A,5225.8764,N,00401.3215,W,12.51,227.49,210214,,*20
$GPGGA,151102.000,5225.8743,N,00401.3252,W,1,09,1.0,41.4,M,51.1,M,,0000*7F
$GPGSA,A,3,28,09,26,15,08,05,21,24,07,,,,1.6,1.0,1.3*3A
$GPRMC,151102.000,A,5225.8743,N,00401.3252,W,9.34,227.44,210214,,*11
$GPGGA,151103.000,5225.8728,N,00401.3278,W,1,09,1.0,41.4,M,51.1,M,,0000*7B
$GPGSA,A,3,28,09,26,15,08,05,21,24,07,,,,1.6,1.0,1.3*3A
$GPRMC,151103.000,A,5225.8728,N,00401.3278,W,5.86,226.66,210214,,*11
$GPGGA,151104.000,5225.8720,N,00401.3292,W,1,10,0.9,41.5,M,51.1,M,,0000*71
$GPGSA,A,3,28,09,26,15,08,05,21,24,07,10,,,1.4,0.9,1.1*33
$GPGSV,3,1,12,26,80,303,42,09,55,062,30,05,53,191,44,08,51,059,19*7E
$GPGSV,3,2,12,28,43,111,38,15,40,284,37,21,18,304,34,07,18,057,30*73
$GPGSV,3,3,12,24,05,234,19,18,05,318,23,19,05,034,,10,05,153,17*7C
$GPRMC,151104.000,A,5225.8720,N,00401.3292,W,2.71,226.95,210214,,*19
$GPGGA,151105.000,5225.8716,N,00401.3298,W,1,09,0.9,41.6,M,51.1,M,,0000*74
$GPGSA,A,3,28,26,15,08,05,21,24,07,10,,,,1.4,0.9,1.1*3A
$GPRMC,151105.000,A,5225.8716,N,00401.3298,W,0.71,224.21,210214,,*18
$GPGGA,151106.000,5225.8715,N,00401.3300,W,1,10,0.9,41.8,M,51.1,M,,0000*72
$GPGSA,A,3,28,09,26,15,08,05,21,24,07,10,,,1.4,0.9,1.1*33
$GPRMC,151106.000,A,5225.8715,N,00401.3300,W,0.79,227.04,210214,,*14
$GPGGA,151107.000,5225.8711,N,00401.3308,W,1,10,0.9,41.6,M,51.1,M,,0000*71
$GPGSA,A,3,28,09,26,15,08,05,21,24,07,10,,,1.4,0.9,1.1*33
$GPRMC,151107.000,A,5225.8711,N,00401.3308,W,2.93,226.07,210214,,*1D
$GPGGA,151108.000,5225.8702,N,00401.3325,W,1,10,0.9,41.4,M,51.1,M,,0000*71
$GPGSA,A,3,28,09,26,15,08,05,21,24,07,10,,,1.4,0.9,1.1*33
$GPRMC,151108.000,A,5225.8702,N,00401.3325,W,6.84,225.78,210214,,*16
$GPGGA,151109.000,5225.8687,N,00401.3353,W,1,10,0.9,41.1,M,51.1,M,,0000*78
$GPGSA,A,3,28,09,26,15,08,05,21,24,07,10,,,1.4,0.9,1.1*33
$GPGSV,3,1,12,26,80,303,42,09,55,062,32,05,53,191,44,08,51,059,20*76
$GPGSV,3,2,12,28,43,111,39,15,40,284,37,21,18,304,35,07,18,057,25*77
$GPGSV,3,3,12,24,05,234,20,18,05,318,20,19,05,034,,10,05,153,23*72
$GPRMC,151109.000,A,5225.8687,N,00401.3353,W,9.14,226.18,210214,,*19
$GPGGA,151110.000,5225.8670,N,00401.3384,W,1,10,0.9,40.7,M,51.1,M,,0000*75
$GPGSA,A,3,28,09,26,15,08,05,21,24,07,10,,,1.4,0.9,1.1*33
$GPRMC,151110.000,A,5225.8670,N,00401.3384,W,9.12,227.08,210214,,*15
$GPGGA,151111.000,5225.8652,N,00401.3419,W,1,10,0.9,40.4,M,51.1,M,,0000*74
$GPGSA,A,3,28,09,26,15,08,05,21,24,07,10,,,1.4,0.9,1.1*33
$GPRMC,151111.000,A,5225.8652,N,00401.3419,W,10.80,227.94,210214,,*21
$GPGGA,151112.000,5225.8629,N,00401.3462,W,1,10,0.9,40.1,M,51.1,M,,0000*72
$GPGSA,A,3,28,09,26,15,08,05,21,24,07,10,,,1.4,0.9,1.1*33
$GPRMC,151112.000,A,5225.8629,N,00401.3462,W,13.85,228.09,210214,,*2F
$GPGGA,151113.000,5225.8604,N,00401.3511,W,1,10,0.9,39.1,M,51.1,M,,0000*77
$GPGSA,A,3,28,09,26,15,08,05,21,24,07,10,,,1.4,0.9,1.1*33
$GPRMC,151113.000,A,5225.8604,N,00401.3511,W,16.55,229.57,210214,,*26
$GPGGA,151114.000,5225.8576,N,00401.3569,W,1,10,0.9,38.4,M,51.1,M,,0000*7D
$GPGSA,A,3,28,09,26,15,08,05,21,24,07,10,,,1.4,0.9,1.1*33
$GPGSV,3,1,12,26,80,303,42,09,55,062,24,05,53,191,44,08,51,059,26*77
$GPGSV,3,2,12,28,43,111,39,15,40,284,23,21,18,304,23,07,18,057,26*76
$GPGSV,3,3,12,24,05,234,20,18,05,318,18,19,05,034,,10,05,153,27*7D
$GPRMC,151114.000,A,5225.8576,N,00401.3569,W,17.09,230.42,210214,,*2C
$GPGGA,151115.000,5225.8545,N,00401.3632,W,1,10,0.9,37.9,M,51.1,M,,0000*73
$GPGSA,A,3,28,09,26,15,08,05,21,24,07,10,,,1.4,0.9,1.1*33
$GPRMC,151115.000,A,5225.8545,N,00401.3632,W,18.10,230.94,210214,,*2C
$GPGGA,151116.000,5225.8511,N,00401.3703,W,1,10,0.9,37.4,M,51.1,M,,0000*7F
$GPGSA,A,3,28,09,26,15,08,05,21,24,07,10,,,1.4,0.9,1.1*33
$GPRMC,151116.000,A,5225.8511,N,00401.3703,W,20.37,232.49,210214,,*21
$GPGGA,151117.000,5225.8476,N,00401.3783,W,1,10,0.9,37.4,M,51.1,M,,0000*76
$GPGSA,A,3,28,09,26,15,08,05,21,24,07,10,,,1.4,0.9,1.1*33
$GPRMC,151117.000,A,5225.8476,N,00401.3783,W,22.73,235.16,210214,,*27
$GPGGA,151118.000,5225.8442,N,00401.3876,W,1,10,0.9,37.2,M,51.1,M,,0000*7D
$GPGSA,A,3,28,09,26,15,08,05,21,24,07,10,,,1.4,0.9,1.1*33
$GPRMC,151118.000,A,5225.8442,N,00401.3876,W,24.50,239.14,210214,,*23
$GPGGA,151119.000,5225.8410,N,00401.3974,W,1,10,0.9,37.1,M,51.1,M,,0000*7B
$GPGSA,A,3,28,09,26,15,08,05,21,24,07,10,,,1.4,0.9,1.1*33
$GPGSV,3,1,12,26,80,303,42,09,54,062,32,05,53,191,44,08,51,059,26*71
$GPGSV,3,2,12,28,43,111,39,15,40,284,30,21,18,304,23,07,17,057,27*7A
$GPGSV,3,3,12,24,05,234,20,18,05,318,16,19,05,034,,10,05,153,26*72
$GPRMC,151119.000,A,5225.8410,N,00401.3974,W,23.99,243.54,210214,,*2D
$GPGGA,151120.000,5225.8382,N,00401.4068,W,1,09,1.0,37.4,M,51.1,M,,0000*7B
$GPGSA,A,3,28,09,26,15,08,05,24,07,10,,,,1.6,1.0,1.2*39
$GPRMC,151120.000,A,5225.8382,N,00401.4068,W,22.33,246.60,210214,,*2B
$GPGGA,151121.000,5225.8360,N,00401.4165,W,1,10,0.9,37.5,M,51.1,M,,0000*7B
$GPGSA,A,3,28,09,26,15,08,05,21,24,07,10,,,1.4,0.9,1.1*33
$GPRMC,151121.000,A,5225.8360,N,00401.4165,W,22.76,250.60,210214,,*2C
$GPGGA,151122.000,5225.8341,N,00401.4265,W,1,10,0.9,38.0,M,51.1,M,,0000*72
$GPGSA,A,3,28,09,26,15,08,05,21,24,07,10,,,1.4,0.9,1.1*33
$GPRMC,151122.000,A,5225.8341,N,00401.4265,W,22.98,253.56,210214,,*29
$GPGGA,151123.000,5225.8324,N,00401.4365,W,1,09,0.9,38.2,M,51.1,M,,0000*7B
$GPGSA,A,3,28,26,15,08,05,21,24,07,10,,,,1.4,0.9,1.1*3A
$GPRMC,151123.000,A,5225.8324,N,00401.4365,W,22.69,253.27,210214,,*22
$GPGGA,151124.000,5225.8307,N,00401.4465,W,1,10,0.9,38.5,M,51.1,M,,0000*75
$GPGSA,A,3,28,09,26,15,08,05,21,24,07,10,,,1.4,0.9,1.1*33
$GPGSV,3,1,12,26,80,303,42,09,54,062,38,05,53,191,43,08,51,059,34*7F
$GPGSV,3,2,12,28,43,111,34,15,40,284,30,21,18,304,18,07,17,057,15*7E
$GPGSV,3,3,12,24,05,234,21,18,05,318,,19,05,034,,10,05,153,19*78
$GPRMC,151124.000,A,5225.8307,N,00401.4465,W,22.48,254.44,210214,,*22
$GPGGA,151125.000,5225.8290,N,00401.4564,W,1,10,0.9,38.7,M,51.1,M,,0000*79
$GPGSA,A,3,28,09,26,15,08,05,21,24,07,10,,,1.4,0.9,1.1*33
$GPRMC,151125.000,A,5225.8290,N,00401.4564,W,23.12,254.36,210214,,*27
$GPGGA,151126.000,5225.8270,N,00401.4665,W,1,10,0.9,38.9,M,51.1,M,,0000*78
$GPGSA,A,3,28,09,26,15,08,05,21,24,07,10,,,1.4,0.9,1.1*33
$GPRMC,151126.000,A,5225.8270,N,00401.4665,W,23.20,250.34,210214,,*2F
$GPGGA,151127.000,5225.8247,N,00401.4767,W,1,10,0.9,38.8,M,51.1,M,,0000*7F
$GPGSA,A,3,28,09,26,15,08,05,21,24,07,10,,,1.4,0.9,1.1*33
$GPRMC,151127.000,A,5225.8247,N,00401.4767,W,23.62,248.43,210214,,*26
$GPGGA,151128.000,5225.8222,N,00401.4871,W,1,09,0.9,38.8,M,51.1,M,,0000*73
$GPGSA,A,3,28,09,26,15,08,05,21,07,10,,,,1.5,0.9,1.2*37
$GPRMC,151128.000,A,5225.8222,N,00401.4871,W,24.51,248.15,210214,,*26
$GPGGA,151129.000,5225.8199,N,00401.4978,W,1,09,0.9,39.1,M,51.1,M,,0000*71
$GPGSA,A,3,28,09,26,15,08,05,21,07,10,,,,1.5,0.9,1.2*37
$GPGSV,3,1,12,26,80,303,42,09,54,062,32,05,53,191,44,08,51,059,32*74
$GPGSV,3,2,12,28,43,111,34,15,40,284,41,21,18,304,27,07,17,057,16*77
$GPGSV,3,3,12,24,05,234,07,18,05,318,,19,05,034,,10,05,153,24*72
$GPRMC,151129.000,A,5225.8199,N,00401.4978,W,24.69,251.55,210214,,*2B
$GPGGA,151130.000,5225.8181,N,00401.5088,W,1,08,1.3,39.1,M,51.1,M,,0000*7D
$GPGSA,A,3,28,09,26,15,08,05,21,07,,,,,2.3,1.3,1.9*33
$GPRMC,151130.000,A,5225.8181,N,00401.5088,W,24.98,256.14,210214,,*21
$GPGGA,151131.000,5225.8164,N,00401.5201,W,1,09,0.9,38.8,M,51.1,M,,0000*76
$GPGSA,A,3,28,09,26,15,08,05,21,07,10,,,,1.5,0.9,1.2*37
$GPRMC,151131.000,A,5225.8164,N,00401.5201,W,25.25,256.05,210214,,*2F
$GPGGA,151132.000,5225.8146,N,00401.5311,W,1,09,0.9,38.3,M,51.1,M,,0000*7E
$GPGSA,A,3,28,09,26,15,08,05,21,07,10,,,,1.5,0.9,1.2*37
$GPRMC,151132.000,A,5225.8146,N,00401.5311,W,25.29,253.36,210214,,*25
$GPGGA,151133.000,5225.8121,N,00401.5420,W,1,09,0.9,37.6,M,51.1,M,,0000*71
$GPGSA,A,3,28,09,26,15,08,05,21,07,10,,,,1.5,0.9,1.2*37
$GPRMC,151133.000,A,5225.8121,N,00401.5420,W,26.01,249.28,210214,,*2D
$GPGGA,151134.000,5225.8102,N,00401.5533,W,1,08,1.3,36.6,M,51.1,M,,0000*7F
$GPGSA,A,3,28,09,26,15,08,05,21,07,,,,,2.3,1.3,1.9*33
$GPGSV,3,1,12,26,80,303,42,09,54,062,39,05,53,191,37,08,51,059,39*70
$GPGSV,3,2,12,28,43,111,26,15,40,284,35,21,18,304,21,07,17,057,18*7F
$GPGSV,3,3,12,24,05,234,,18,05,318,,19,05,034,,10,05,153,13*71
$GPRMC,151134.000,A,5225.8102,N,00401.5533,W,26.20,252.08,210214,,*23
$GPGGA,151135.000,5225.8085,N,00401.5647,W,1,08,1.3,36.1,M,51.1,M,,0000*77
$GPGSA,A,3,28,09,26,15,08,05,21,07,,,,,2.3,1.3,1.9*33
$GPRMC,151135.000,A,5225.8085,N,00401.5647,W,26.50,252.27,210214,,*26
$GPGGA,151136.000,5225.8077,N,00401.5760,W,1,08,1.3,36.3,M,51.1,M,,0000*7F
$GPGSA,A,3,28,09,26,15,08,05,21,07,,,,,2.3,1.3,1.9*33
$GPRMC,151136.000,A,5225.8077,N,00401.5760,W,25.82,256.17,210214,,*27
$GPGGA,151137.000,5225.8069,N,00401.5874,W,1,08,1.3,36.3,M,51.1,M,,0000*7B
$GPGSA,A,3,28,09,26,15,08,05,21,07,,,,,2.3,1.3,1.9*33
$GPRMC,151137.000,A,5225.8069,N,00401.5874,W,26.10,256.02,210214,,*2F
$GPGGA,151138.000,5225.8064,N,00401.5984,W,1,08,1.3,36.1,M,51.1,M,,0000*75
$GPGSA,A,3,28,09,26,15,08,05,21,07,,,,,2.3,1.3,1.9*33
$GPRMC,151138.000,A,5225.8064,N,00401.5984,W,24.34,257.62,210214,,*20
$GPGGA,151139.000,5225.8063,N,00401.6090,W,1,08,1.3,36.0,M,51.1,M,,0000*7D
$GPGSA,A,3,28,09,26,15,08,05,21,07,,,,,2.3,1.3,1.9*33
$GPGSV,3,1,12,26,80,303,43,09,54,062,37,05,53,191,38,08,51,059,33*7A
$GPGSV,3,2,12,28,43,111,25,15,40,284,36,21,18,304,23,07,17,057,18*7D
$GPGSV,3,3,12,24,05,234,,18,05,318,,19,05,034,,10,05,153,*73
$GPRMC,151139.000,A,5225.8063,N,00401.6090,W,23.57,261.68,210214,,*24
$GPGGA,151140.000,5225.8057,N,00401.6197,W,1,08,1.3,36.0,M,51.1,M,,0000*72
$GPGSA,A,3,28,09,26,15,08,05,21,07,,,,,2.3,1.3,1.9*33
$GPRMC,151140.000,A,5225.8057,N,00401.6197,W,24.05,260.18,210214,,*2D
$GPGGA,151141.000,5225.8048,N,00401.6305,W,1,08,1.3,36.0,M,51.1,M,,0000*74
$GPGSA,A,3,28,09,26,15,08,05,21,07,,,,,2.3,1.3,1.9*33
$GPRMC,151141.000,A,5225.8048,N,00401.6305,W,24.58,258.77,210214,,*21
$GPGGA,151142.000,5225.8036,N,00401.6416,W,1,08,1.3,36.2,M,51.1,M,,0000*79
$GPGSA,A,3,28,09,26,15,08,05,21,07,,,,,2.3,1.3,1.9*33
$GPRMC,151142.000,A,5225.8036,N,00401.6416,W,25.24,257.47,210214,,*28
$GPGGA,151143.000,5225.8021,N,00401.6529,W,1,09,1.0,36.2,M,51.1,M,,0000*71
$GPGSA,A,3,28,09,26,15,08,05,21,07,24,,,,1.6,1.0,1.3*3A
$GPRMC,151143.000,A,5225.8021,N,00401.6529,W,25.87,254.99,210214,,*2B
$GPGGA,151144.000,5225.8005,N,00401.6647,W,1,08,1.0,36.3,M,51.1,M,,0000*7B
$GPGSA,A,3,28,26,15,08,05,21,07,24,,,,,1.7,1.0,1.3*32
$GPGSV,3,1,12,26,80,303,39,09,54,062,31,05,53,191,39,08,51,059,33*70
$GPGSV,3,2,12,28,43,111,33,15,40,284,42,21,18,304,36,07,17,057,27*71
$GPGSV,3,3,12,24,05,234,14,18,05,318,32,19,05,034,,10,05,153,*77
$GPRMC,151144.000,A,5225.8005,N,00401.6647,W,25.72,252.03,210214,,*2E
$GPGGA,151145.000,5225.7985,N,00401.6761,W,1,09,1.0,36.4,M,51.1,M,,0000*77
$GPGSA,A,3,28,09,26,15,08,05,21,07,24,,,,1.6,1.0,1.3*3A
$GPRMC,151145.000,A,5225.7985,N,00401.6761,W,26.47,252.13,210214,,*20
$GPGGA,151146.000,5225.7962,N,00401.6882,W,1,09,1.0,35.2,M,51.1,M,,0000*7A
$GPGSA,A,3,28,09,26,15,08,05,21,07,24,,,,1.6,1.0,1.3*3A
$GPRMC,151146.000,A,5225.7962,N,00401.6882,W,27.27,252.72,210214,,*28
$GPGGA,151147.000,5225.7934,N,00401.7001,W,1,09,1.0,34.6,M,51.1,M,,0000*7F
$GPGSA,A,3,28,09,26,15,08,05,21,07,24,,,,1.6,1.0,1.3*3A
$GPRMC,151147.000,A,5225.7934,N,00401.7001,W,27.91,252.41,210214,,*25
$GPGGA,151148.000,5225.7914,N,00401.7125,W,1,08,1.3,33.9,M,51.1,M,,0000*7F
$GPGSA,A,3,28,09,26,15,08,05,21,07,,,,,2.3,1.3,1.9*33
$GPRMC,151148.000,A,5225.7914,N,00401.7125,W,28.44,253.62,210214,,*28
$GPGGA,151149.000,5225.7893,N,00401.7245,W,1,08,1.3,32.6,M,51.1,M,,0000*7B
$GPGSA,A,3,28,09,26,15,08,05,21,07,,,,,2.3,1.3,1.9*33
$GPGSV,3,1,12,26,80,303,20,09,54,062,20,05,53,191,25,08,51,059,18*7C
$GPGSV,3,2,12,28,43,111,17,15,40,284,23,21,18,304,16,07,17,057,14*72
$GPGSV,3,3,12,24,05,234,,18,05,318,,19,05,034,,10,05,153,*73
$GPRMC,151149.000,A,5225.7893,N,00401.7245,W,28.05,252.38,210214,,*29
$GPGGA,151150.000,5225.7861,N,00401.7369,W,1,08,1.3,32.4,M,51.1,M,,0000*73
$GPGSA,A,3,28,09,26,15,08,05,21,07,,,,,2.3,1.3,1.9*33
$GPRMC,151150.000,A,5225.7861,N,00401.7369,W,28.51,247.60,210214,,*2B
$GPGGA,151151.000,5225.7819,N,00401.7475,W,1,08,1.3,32.2,M,51.1,M,,0000*71
$GPGSA,A,3,28,09,26,15,08,05,21,07,,,,,2.3,1.3,1.9*33
$GPRMC,151151.000,A,5225.7819,N,00401.7475,W,28.15,243.38,210214,,*26
$GPGGA,151152.000,5225.7773,N,00401.7584,W,1,08,1.3,32.9,M,51.1,M,,0000*75
$GPGSA,A,3,28,09,26,15,08,05,21,07,,,,,2.3,1.3,1.9*33
$GPRMC,151152.000,A,5225.7773,N,00401.7584,W,27.56,239.97,210214,,*29
$GPGGA,151153.000,5225.7725,N,00401.7690,W,1,08,1.3,33.7,M,51.1,M,,0000*7E
$GPGSA,A,3,28,09,26,15,08,05,21,07,,,,,2.3,1.3,1.9*33
$GPRMC,151153.000,A,5225.7725,N,00401.7690,W,27.68,238.12,210214,,*2C
$GPGGA,151154.000,5225.7684,N,00401.7791,W,1,09,1.3,35.4,M,51.1,M,,0000*77
$GPGSA,A,3,28,09,26,19,15,08,05,21,07,,,,2.1,1.3,1.7*37
$GPGSV,3,1,12,26,80,303,37,09,54,062,33,05,53,191,38,08,51,059,32*7C
$GPGSV,3,2,12,28,43,111,29,15,40,284,33,21,18,304,31,07,17,057,28*74
$GPGSV,3,3,12,24,05,234,,18,05,318,,19,05,034,20,10,05,153,*71
$GPRMC,151154.000,A,5225.7684,N,00401.7791,W,25.96,238.21,210214,,*22
$GPGGA,151155.000,5225.7642,N,00401.7884,W,1,10,0.9,35.7,M,51.1,M,,0000*77
$GPGSA,A,3,28,09,26,19,15,08,05,21,10,07,,,1.4,0.9,1.1*3D
$GPRMC,151155.000,A,5225.7642,N,00401.7884,W,24.84,232.40,210214,,*2D
$GPGGA,151156.000,5225.7597,N,00401.7972,W,1,10,0.9,37.1,M,51.1,M,,0000*73
$GPGSA,A,3,28,09,26,19,15,08,05,21,10,07,,,1.4,0.9,1.1*3D
$GPRMC,151156.000,A,5225.7597,N,00401.7972,W,25.28,230.17,210214,,*2A
$GPGGA,151157.000,5225.7552,N,00401.8059,W,1,10,0.9,38.7,M,51.1,M,,0000*7D
$GPGSA,A,3,28,09,26,19,15,08,05,21,10,07,,,1.4,0.9,1.1*3D
$GPRMC,151157.000,A,5225.7552,N,00401.8059,W,25.02,230.66,210214,,*23
$GPGGA,151158.000,5225.7510,N,00401.8144,W,1,10,0.9,40.1,M,51.1,M,,0000*70
$GPGSA,A,3,28,09,26,19,15,08,05,21,10,07,,,1.4,0.9,1.1*3D
$GPRMC,151158.000,A,5225.7510,N,00401.8144,W,23.93,232.88,210214,,*2B
$GPGGA,151159.000,5225.7473,N,00401.8235,W,1,10,0.9,41.1,M,51.1,M,,0000*71
$GPGSA,A,3,28,09,26,19,15,08,05,21,10,07,,,1.4,0.9,1.1*3D
$GPGSV,3,1,12,26,80,303,41,09,54,062,35,05,53,191,40,08,51,059,37*71
$GPGSV,3,2,12,28,43,111,30,15,40,284,32,21,18,304,29,07,17,057,28*74
$GPGSV,3,3,12,24,05,234,,18,05,318,,19,05,034,26,10,05,153,22*77
$GPRMC,151159.000,A,5225.7473,N,00401.8235,W,23.96,236.66,210214,,*2A
$GPGGA,151200.000,5225.7440,N,00401.8327,W,1,10,0.9,42.3,M,51.1,M,,0000*7D
$GPGSA,A,3,28,09,26,19,15,08,05,21,10,07,,,1.4,0.9,1.1*3D
$GPRMC,151200.000,A,5225.7440,N,00401.8327,W,23.49,239.87,210214,,*25
$GPGGA,151201.000,5225.7409,N,00401.8416,W,1,10,0.9,43.4,M,51.1,M,,0000*72
$GPGSA,A,3,28,09,26,19,15,08,05,21,10,07,,,1.4,0.9,1.1*3D
$GPRMC,151201.000,A,5225.7409,N,00401.8416,W,22.02,239.09,210214,,*24
$GPGGA,151202.000,5225.7380,N,00401.8496,W,1,10,0.9,44.4,M,51.1,M,,0000*78
$GPGSA,A,3,28,09,26,19,15,08,05,21,10,07,,,1.4,0.9,1.1*3D
$GPRMC,151202.000,A,5225.7380,N,00401.8496,W,20.10,236.74,210214,,*2D
$GPGGA,151203.000,5225.7352,N,00401.8574,W,1,10,0.9,46.3,M,51.1,M,,0000*7E
$GPGSA,A,3,28,09,26,19,15,08,05,21,10,07,,,1.4,0.9,1.1*3D
$GPRMC,151203.000,A,5225.7352,N,00401.8574,W,19.91,234.17,210214,,*2A
$GPGGA,151204.000,5225.7321,N,00401.8651,W,1,10,0.9,48.0,M,51.1,M,,0000*74
$GPGSA,A,3,28,09,26,19,15,08,05,21,10,07,,,1.4,0.9,1.1*3D
$GPGSV,3,1,12,26,80,303,42,09,54,062,36,05,53,191,40,08,51,059,37*71
$GPGSV,3,2,12,28,43,111,36,15,40,284,27,21,18,304,29,07,17,057,30*7F
$GPGSV,3,3,12,24,05,234,,18,05,318,,19,05,034,24,10,05,153,23*74
$GPRMC,151204.000,A,5225.7321,N,00401.8651,W,20.63,232.78,210214,,*25
$GPGGA,151205.000,5225.7288,N,00401.8730,W,1,10,0.9,49.6,M,51.1,M,,0000*76
$GPGSA,A,3,28,09,26,19,15,08,05,21,10,07,,,1.4,0.9,1.1*3D
$GPRMC,151205.000,A,5225.7288,N,00401.8730,W,21.42,233.97,210214,,*22
$GPGGA,151206.000,5225.7256,N,00401.8813,W,1,10,0.9,51.3,M,51.1,M,,0000*74
$GPGSA,A,3,28,09,26,19,15,08,05,21,10,07,,,1.4,0.9,1.1*3D
$GPRMC,151206.000,A,5225.7256,N,00401.8813,W,22.27,236.19,210214,,*2F
$GPGGA,151207.000,5225.7223,N,00401.8902,W,1,09,0.9,52.9,M,51.1,M,,0000*77
$GPGSA,A,3,28,09,26,19,08,05,21,10,07,,,,1.4,0.9,1.1*39
$GPRMC,151207.000,A,5225.7223,N,00401.8902,W,23.14,237.15,210214,,*21
$GPGGA,151208.000,5225.7189,N,00401.8991,W,1,10,0.9,54.2,M,51.1,M,,0000*74
$GPGSA,A,3,28,09,26,19,15,08,05,21,10,07,,,1.4,0.9,1.1*3D
$GPRMC,151208.000,A,5225.7189,N,00401.8991,W,23.10,238.33,210214,,*28
$GPGGA,151209.000,5225.7157,N,00401.9082,W,1,10,0.9,55.4,M,51.1,M,,0000*7B
$GPGSA,A,3,28,09,26,19,15,08,05,21,10,07,,,1.4,0.9,1.1*3D
$GPGSV,3,1,12,26,80,303,42,09,54,062,37,05,53,191,41,08,51,059,36*70
$GPGSV,3,2,12,28,43,111,28,15,40,284,36,21,18,304,29,07,17,057,36*76
$GPGSV,3,3,12,24,05,234,,18,05,318,,19,05,034,17,10,05,153,23*74
$GPRMC,151209.000,A,5225.7157,N,00401.9082,W,22.76,238.79,210214,,*2F
$GPGGA,151210.000,5225.7125,N,00401.9168,W,1,10,0.9,56.4,M,51.1,M,,0000*70
$GPGSA,A,3,28,09,26,19,15,08,05,21,10,07,,,1.4,0.9,1.1*3D
$GPRMC,151210.000,A,5225.7125,N,00401.9168,W,22.11,238.90,210214,,*21
$GPGGA,151211.000,5225.7093,N,00401.9253,W,1,09,0.9,57.6,M,51.1,M,,0000*7D
$GPGSA,A,3,28,09,26,15,08,05,21,10,07,,,,1.5,0.9,1.2*37
$GPRMC,151211.000,A,5225.7093,N,00401.9253,W,21.78,239.04,210214,,*27
$GPGGA,151212.000,5225.7063,N,00401.9336,W,1,09,0.9,58.5,M,51.1,M,,0000*7F
$GPGSA,A,3,28,09,26,15,08,05,21,10,07,,,,1.5,0.9,1.2*37
$GPRMC,151212.000,A,5225.7063,N,00401.9336,W,21.30,238.77,210214,,*20
$GPGGA,151213.000,5225.7033,N,00401.9417,W,1,09,0.9,59.5,M,51.1,M,,0000*7E
$GPGSA,A,3,28,09,26,15,08,05,21,10,07,,,,1.5,0.9,1.2*37
$GPRMC,151213.000,A,5225.7033,N,00401.9417,W,20.46,238.88,210214,,*20
$GPGGA,151214.000,5225.7004,N,00401.9493,W,1,08,1.0,60.4,M,51.1,M,,0000*73
$GPGSA,A,3,09,26,15,08,05,21,10,07,,,,,1.6,1.0,1.2*36
$GPGSV,3,1,12,26,80,303,42,09,54,062,37,05,53,191,41,08,51,059,37*71
$GPGSV,3,2,12,28,43,111,,15,40,284,36,21,18,304,29,07,17,057,34*7E
$GPGSV,3,3,12,24,05,234,,18,05,318,,19,05,034,,10,05,153,26*77
$GPRMC,151214.000,A,5225.7004,N,00401.9493,W,19.72,239.08,210214,,*2B
$GPGGA,151215.000,5225.6976,N,00401.9566,W,1,09,0.9,61.4,M,51.1,M,,0000*7C
$GPGSA,A,3,28,09,26,15,08,05,21,10,07,,,,1.5,0.9,1.2*37
$GPRMC,151215.000,A,5225.6976,N,00401.9566,W,18.94,238.31,210214,,*2E
$GPGGA,151216.000,5225.6948,N,00401.9636,W,1,09,0.9,62.4,M,51.1,M,,0000*77
$GPGSA,A,3,28,09,26,15,08,05,21,10,07,,,,1.5,0.9,1.2*37
$GPRMC,151216.000,A,5225.6948,N,00401.9636,W,18.53,236.49,210214,,*2C
$GPGGA,151217.000,5225.6920,N,00401.9702,W,1,09,0.9,63.2,M,51.1,M,,0000*79
$GPGSA,A,3,28,09,26,15,08,05,21,10,07,,,,1.5,0.9,1.2*37
$GPRMC,151217.000,A,5225.6920,N,00401.9702,W,17.45,235.15,210214,,*27
$GPGGA,151218.000,5225.6894,N,00401.9760,W,1,09,0.9,63.8,M,51.1,M,,0000*76
$GPGSA,A,3,28,09,26,15,08,05,21,10,07,,,,1.5,0.9,1.2*37
$GPRMC,151218.000,A,5225.6894,N,00401.9760,W,15.18,233.58,210214,,*27
$GPGGA,151219.000,5225.6873,N,00401.9810,W,1,09,0.9,64.2,M,51.1,M,,0000*7B
$GPGSA,A,3,28,09,26,15,08,05,21,10,07,,,,1.5,0.9,1.2*37
$GPGSV,3,1,12,26,80,303,42,09,54,062,38,05,53,191,42,08,51,059,38*72
$GPGSV,3,2,12,28,43,111,30,15,40,284,26,21,18,304,30,07,17,057,34*74
$GPGSV,3,3,12,24,05,234,,18,05,318,,19,05,034,,10,05,153,28*79
$GPRMC,151219.000,A,5225.6873,N,00401.9810,W,11.75,232.35,210214,,*22
$GPGGA,151220.000,5225.6858,N,00401.9846,W,1,10,0.9,64.1,M,51.1,M,,0000*70
$GPGSA,A,3,28,09,26,19,15,08,05,21,10,07,,,1.4,0.9,1.1*3D
$GPRMC,151220.000,A,5225.6858,N,00401.9846,W,7.73,230.26,210214,,*13
$GPGGA,151221.000,5225.6849,N,00401.9865,W,1,10,0.9,64.3,M,51.1,M,,0000*72
$GPGSA,A,3,28,09,26,19,15,08,05,21,10,07,,,1.4,0.9,1.1*3D
$GPRMC,151221.000,A,5225.6849,N,00401.9865,W,3.40,224.12,210214,,*15
$GPGGA,151222.000,5225.6847,N,00401.9869,W,1,09,1.3,64.2,M,51.1,M,,0000*71
$GPGSA,A,3,28,09,26,19,15,08,05,21,07,,,,2.1,1.3,1.7*37
$GPRMC,151222.000,A,5225.6847,N,00401.9869,W,0.10,228.09,210214,,*14
$GPGGA,151223.000,5225.6848,N,00401.9868,W,1,10,0.9,64.3,M,51.1,M,,0000*7C
$GPGSA,A,3,28,09,26,19,15,08,05,21,10,07,,,1.4,0.9,1.1*3D
$GPRMC,151223.000,A,5225.6848,N,00401.9868,W,0.13,145.72,210214,,*1C
$GPGGA,151224.000,5225.6849,N,00401.9867,W,1,10,0.9,64.1,M,51.1,M,,0000*77
$GPGSA,A,3,28,09,26,19,15,08,05,21,10,07,,,1.4,0.9,1.1*3D
$GPGSV,3,1,12,26,80,303,41,09,54,062,38,05,53,191,42,08,51,059,39*70
$GPGSV,3,2,12,28,43,111,31,15,40,284,34,21,18,304,27,07,17,057,33*77
$GPGSV,3,3,12,24,05,234,,18,05,318,,19,05,034,24,10,05,153,36*70
$GPRMC,151224.000,A,5225.6849,N,00401.9867,W,0.14,131.23,210214,,*15
$GPGGA,151225.000,5225.6850,N,00401.9867,W,1,10,0.9,63.9,M,51.1,M,,0000*71
$GPGSA,A,3,28,09,26,19,15,08,05,21,10,07,,,1.4,0.9,1.1*3D
$GPRMC,151225.000,A,5225.6850,N,00401.9867,W,0.13,147.97,210214,,*15
$GPGGA,151226.000,5225.6850,N,00401.9867,W,1,10,0.9,63.7,M,51.1,M,,0000*7C
$GPGSA,A,3,28,09,26,19,15,08,05,21,10,07,,,1.4,0.9,1.1*3D
$GPRMC,151226.000,A,5225.6850,N,00401.9867,W,0.08,104.69,210214,,*1A
$GPGGA,151227.000,5225.6850,N,00401.9868,W,1,10,0.9,63.6,M,51.1,M,,0000*73
$GPGSA,A,3,28,09,26,19,15,08,05,21,10,07,,,1.4,0.9,1.1*3D
$GPRMC,151227.000,A,5225.6850,N,00401.9868,W,1.34,226.93,210214,,*1C
$GPGGA,151228.000,5225.6846,N,00401.9878,W,1,10,0.9,63.5,M,51.1,M,,0000*79
$GPGSA,A,3,28,09,26,19,15,08,05,21,10,07,,,1.4,0.9,1.1*3D
$GPRMC,151228.000,A,5225.6846,N,00401.9878,W,4.56,227.81,210214,,*16
$GPGGA,151229.000,5225.6834,N,00401.9899,W,1,10,0.9,63.1,M,51.1,M,,0000*76
$GPGSA,A,3,28,09,26,19,15,08,05,21,10,07,,,1.4,0.9,1.1*3D
$GPGSV,3,1,12,26,80,303,41,09,54,062,35,05,53,191,42,08,51,059,38*7C
$GPGSV,3,2,12,28,43,111,31,15,40,284,34,21,18,304,27,07,17,057,22*77
$GPGSV,3,3,12,24,05,234,,18,05,318,,19,05,034,28,10,05,153,35*7F
$GPRMC,151229.000,A,5225.6834,N,00401.9899,W,7.82,226.97,210214,,*11
$GPGGA,151230.000,5225.6816,N,00401.9929,W,1,10,0.9,63.0,M,51.1,M,,0000*75
$GPGSA,A,3,28,09,26,19,15,08,05,21,10,07,,,1.4,0.9,1.1*3D
$GPRMC,151230.000,A,5225.6816,N,00401.9929,W,10.58,220.74,210214,,*29
$GPGGA,151231.000,5225.6791,N,00401.9954,W,1,09,1.0,63.4,M,51.1,M,,0000*7A
$GPGSA,A,3,28,09,26,19,15,08,05,10,07,,,,1.6,1.0,1.2*37
$GPRMC,151231.000,A,5225.6791,N,00401.9954,W,10.38,210.45,210214,,*25
$GPGGA,151232.000,5225.6763,N,00401.9977,W,1,09,1.0,63.6,M,51.1,M,,0000*77
$GPGSA,A,3,28,09,26,19,15,08,05,10,07,,,,1.6,1.0,1.2*37
$GPRMC,151232.000,A,5225.6763,N,00401.9977,W,11.32,206.15,210214,,*23
$GPGGA,151233.000,5225.6730,N,00402.0000,W,1,08,1.2,64.1,M,51.1,M,,0000*70
$GPGSA,A,3,28,09,26,15,08,05,10,07,,,,,1.9,1.2,1.5*35
$GPRMC,151233.000,A,5225.6730,N,00402.0000,W,14.13,203.15,210214,,*24
$GPGGA,151234.000,5225.6688,N,00402.0026,W,1,08,1.2,64.4,M,51.1,M,,0000*74
$GPGSA,A,3,28,09,26,15,08,05,10,07,,,,,1.9,1.2,1.5*35
$GPGSV,3,1,12,26,80,303,40,09,54,062,34,05,53,191,45,08,51,059,30*73
$GPGSV,3,2,12,28,43,111,42,15,40,284,34,21,18,304,,07,17,057,30*75
$GPGSV,3,3,12,24,05,234,,18,05,318,,19,05,034,,10,05,153,36*76
$GPRMC,151234.000,A,5225.6688,N,00402.0026,W,17.22,202.59,210214,,*2D
$GPGGA,151235.000,5225.6640,N,00402.0058,W,1,08,1.2,64.9,M,51.1,M,,0000*75
$GPGSA,A,3,28,09,26,15,08,05,10,07,,,,,1.9,1.2,1.5*35
$GPRMC,151235.000,A,5225.6640,N,00402.0058,W,19.49,201.91,210214,,*25
$GPGGA,151236.000,5225.6588,N,00402.0090,W,1,08,1.2,65.4,M,51.1,M,,0000*79
$GPGSA,A,3,28,09,26,15,08,05,10,07,,,,,1.9,1.2,1.5*35
$GPRMC,151236.000,A,5225.6588,N,00402.0090,W,19.60,199.87,210214,,*2B
$GPGGA,151237.000,5225.6536,N,00402.0123,W,1,08,1.2,66.2,M,51.1,M,,0000*71
$GPGSA,A,3,28,09,26,15,08,05,10,07,,,,,1.9,1.2,1.5*35
$GPRMC,151237.000,A,5225.6536,N,00402.0123,W,19.71,201.41,210214,,*2E
$GPGGA,151238.000,5225.6481,N,00402.0157,W,1,08,1.2,67.2,M,51.1,M,,0000*71
$GPGSA,A,3,28,09,26,15,08,05,10,07,,,,,1.9,1.2,1.5*35
$GPRMC,151238.000,A,5225.6481,N,00402.0157,W,20.78,201.90,210214,,*20
$GPGGA,151239.000,5225.6425,N,00402.0195,W,1,08,1.2,68.2,M,51.1,M,,0000*7F
$GPGSA,A,3,28,09,26,15,08,05,10,07,,,,,1.9,1.2,1.5*35
$GPGSV,3,1,12,26,80,303,39,09,54,062,35,05,53,191,46,08,51,059,25*7B
$GPGSV,3,2,12,28,43,111,40,15,40,284,40,21,18,304,,07,17,057,23*76
$GPGSV,3,3,12,24,05,234,,18,05,318,,19,05,034,,10,05,153,32*72
$GPRMC,151239.000,A,5225.6425,N,00402.0195,W,22.29,202.70,210214,,*2A
$GPGGA,151240.000,5225.6365,N,00402.0237,W,1,09,1.0,69.0,M,51.1,M,,0000*79
$GPGSA,A,3,28,09,26,19,15,08,05,10,07,,,,1.6,1.0,1.2*37
$GPRMC,151240.000,A,5225.6365,N,00402.0237,W,24.06,203.81,210214,,*28
$GPGGA,151241.000,5225.6300,N,00402.0285,W,1,09,1.0,69.7,M,51.1,M,,0000*75
$GPGSA,A,3,28,09,26,19,15,08,05,10,07,,,,1.6,1.0,1.2*37
$GPRMC,151241.000,A,5225.6300,N,00402.0285,W,26.20,204.84,210214,,*27
$GPGGA,151242.000,5225.6231,N,00402.0339,W,1,08,1.4,70.3,M,51.1,M,,0000*7A
$GPGSA,A,3,28,09,26,19,15,08,05,07,,,,,2.3,1.4,1.8*3E
$GPRMC,151242.000,A,5225.6231,N,00402.0339,W,28.38,205.23,210214,,*2A
$GPGGA,151243.000,5225.6156,N,00402.0396,W,1,08,1.4,71.0,M,51.1,M,,0000*7E
$GPGSA,A,3,28,09,26,19,15,08,05,07,,,,,2.3,1.4,1.8*3E
$GPRMC,151243.000,A,5225.6156,N,00402.0396,W,30.21,204.89,210214,,*2C
$GPGGA,151244.000,5225.6079,N,00402.0454,W,1,08,1.4,71.5,M,51.1,M,,0000*79
$GPGSA,A,3,28,09,26,19,15,08,05,07,,,,,2.3,1.4,1.8*3E
$GPGSV,3,1,12,26,80,303,39,09,54,062,29,05,53,191,46,08,51,059,31*73
$GPGSV,3,2,12,28,43,111,41,15,40,284,39,21,18,304,,07,17,057,31*7A
$GPGSV,3,3,12,24,05,234,,18,05,318,,19,05,034,21,10,05,153,33*70
$GPRMC,151244.000,A,5225.6079,N,00402.0454,W,29.75,204.31,210214,,*24
$GPGGA,151245.000,5225.6004,N,00402.0510,W,1,07,1.4,71.9,M,51.1,M,,0000*70
$GPGSA,A,3,28,09,26,15,08,05,07,,,,,,2.7,1.4,2.2*3B
$GPRMC,151245.000,A,5225.6004,N,00402.0510,W,29.43,203.51,210214,,*2A
$GPGGA,151246.000,5225.5927,N,00402.0561,W,1,07,1.4,72.8,M,51.1,M,,0000*7C
$GPGSA,A,3,28,09,26,15,08,05,07,,,,,,2.7,1.4,2.2*3B
$GPRMC,151246.000,A,5225.5927,N,00402.0561,W,30.54,202.43,210214,,*28
$GPGGA,151247.000,5225.5846,N,00402.0616,W,1,07,1.4,73.2,M,51.1,M,,0000*73
$GPGSA,A,3,28,09,26,15,08,05,07,,,,,,2.7,1.4,2.2*3B
$GPRMC,151247.000,A,5225.5846,N,00402.0616,W,31.86,201.80,210214,,*2E
$GPGGA,151248.000,5225.5762,N,00402.0671,W,1,07,1.4,73.6,M,51.1,M,,0000*70
$GPGSA,A,3,28,09,26,15,08,05,07,,,,,,2.7,1.4,2.2*3B
$GPRMC,151248.000,A,5225.5762,N,00402.0671,W,32.89,201.62,210214,,*29
$GPGGA,151249.000,5225.5674,N,00402.0728,W,1,07,1.4,73.9,M,51.1,M,,0000*75
$GPGSA,A,3,28,09,26,15,08,05,07,,,,,,2.7,1.4,2.2*3B
$GPGSV,3,1,12,26,80,303,39,09,54,062,33,05,53,191,46,08,51,059,28*70
$GPGSV,3,2,12,28,43,111,42,15,40,284,25,21,18,304,,07,17,057,21*75
$GPGSV,3,3,12,24,05,234,,18,05,318,,19,05,034,,10,05,153,35*75
$GPRMC,151249.000,A,5225.5674,N,00402.0728,W,34.08,201.78,210214,,*27
$GPGGA,151250.000,5225.5583,N,00402.0790,W,1,06,2.2,74.5,M,51.1,M,,0000*7A
$GPGSA,A,3,28,09,26,08,05,07,,,,,,,3.6,2.2,2.8*30
$GPRMC,151250.000,A,5225.5583,N,00402.0790,W,35.16,202.77,210214,,*25
$GPGGA,151251.000,5225.5494,N,00402.0855,W,1,06,2.2,75.2,M,51.1,M,,0000*7C
$GPGSA,A,3,28,09,26,08,05,07,,,,,,,3.6,2.2,2.8*30
$GPRMC,151251.000,A,5225.5494,N,00402.0855,W,34.48,204.91,210214,,*21
$GPGGA,151252.000,5225.5410,N,00402.0923,W,1,08,1.4,75.7,M,51.1,M,,0000*7D
$GPGSA,A,3,28,09,26,08,05,19,07,15,,,,,2.3,1.4,1.8*3E
$GPRMC,151252.000,A,5225.5410,N,00402.0923,W,33.20,207.50,210214,,*29
$GPGGA,151253.000,5225.5331,N,00402.0998,W,1,08,1.4,75.9,M,51.1,M,,0000*76
$GPGSA,A,3,28,09,26,08,05,19,07,15,,,,,2.3,1.4,1.8*3E
$GPRMC,151253.000,A,5225.5331,N,00402.0998,W,32.70,211.21,210214,,*29
$GPGGA,151254.000,5225.5254,N,00402.1079,W,1,08,1.4,76.6,M,51.1,M,,0000*78
$GPGSA,A,3,28,09,26,08,05,19,07,15,,,,,2.3,1.4,1.8*3E
$GPGSV,3,1,12,26,80,303,39,09,54,062,30,05,53,191,46,08,51,059,32*78
$GPGSV,3,2,12,28,43,111,42,15,40,284,30,21,18,304,,07,17,057,25*75
$GPGSV,3,3,12,24,05,234,,18,05,318,,19,05,034,27,10,05,153,32*77
$GPRMC,151254.000,A,5225.5254,N,00402.1079,W,32.81,215.28,210214,,*28
$GPGGA,151255.000,5225.5180,N,00402.1170,W,1,08,1.4,76.8,M,51.1,M,,0000*75
$GPGSA,A,3,28,09,26,08,05,19,07,15,,,,,2.3,1.4,1.8*3E
$GPRMC,151255.000,A,5225.5180,N,00402.1170,W,33.23,217.04,210214,,*2E
$GPGGA,151256.000,5225.5106,N,00402.1265,W,1,08,1.4,76.7,M,51.1,M,,0000*70
$GPGSA,A,3,28,09,26,08,05,19,07,15,,,,,2.3,1.4,1.8*3E
$GPRMC,151256.000,A,5225.5106,N,00402.1265,W,33.68,218.06,210214,,*26
$GPGGA,151257.000,5225.5031,N,00402.1361,W,1,07,1.9,76.8,M,51.1,M,,0000*7C
$GPGSA,A,3,28,09,26,08,05,19,07,,,,,,2.6,1.9,1.9*33
$GPRMC,151257.000,A,5225.5031,N,00402.1361,W,34.24,216.99,210214,,*20
$GPGGA,151258.000,5225.4953,N,00402.1455,W,1,07,1.9,77.0,M,51.1,M,,0000*76
$GPGSA,A,3,28,09,26,08,05,19,07,,,,,,2.6,1.9,1.9*33
$GPRMC,151258.000,A,5225.4953,N,00402.1455,W,34.61,215.27,210214,,*24
$GPGGA,151259.000,5225.4874,N,00402.1545,W,1,07,1.9,76.8,M,51.1,M,,0000*7A
$GPGSA,A,3,28,09,26,08,05,19,07,,,,,,2.6,1.9,1.9*33
$GPGSV,3,1,12,26,80,303,39,09,54,062,36,05,53,191,46,08,51,059,32*7E
$GPGSV,3,2,12,28,43,111,42,15,40,284,,21,18,304,,07,17,057,29*7A
$GPGSV,3,3,12,24,05,234,,18,05,318,,19,05,034,20,10,05,153,35*77
$GPRMC,151259.000,A,5225.4874,N,00402.1545,W,34.94,213.65,210214,,*2B
$GPGGA,151300.000,5225.4792,N,00402.1634,W,1,08,1.4,76.6,M,51.1,M,,0000*79
$GPGSA,A,3,28,09,26,15,08,05,19,07,,,,,2.3,1.4,1.8*3E
$GPRMC,151300.000,A,5225.4792,N,00402.1634,W,35.13,212.72,210214,,*2D
$GPGGA,151301.000,5225.4709,N,00402.1720,W,1,08,1.4,76.9,M,51.1,M,,0000*71
$GPGSA,A,3,28,09,26,15,08,05,19,07,,,,,2.3,1.4,1.8*3E
$GPRMC,151301.000,A,5225.4709,N,00402.1720,W,35.34,211.82,210214,,*23
$GPGGA,151302.000,5225.4626,N,00402.1805,W,1,08,1.4,77.2,M,51.1,M,,0000*7C
$GPGSA,A,3,28,09,26,15,08,05,19,07,,,,,2.3,1.4,1.8*3E
$GPRMC,151302.000,A,5225.4626,N,00402.1805,W,34.74,210.79,210214,,*24
$GPGGA,151303.000,5225.4545,N,00402.1884,W,1,08,1.4,77.9,M,51.1,M,,0000*79
$GPGSA,A,3,28,09,26,15,08,05,19,07,,,,,2.3,1.4,1.8*3E
$GPRMC,151303.000,A,5225.4545,N,00402.1884,W,33.35,210.32,210214,,*27
$GPGGA,151304.000,5225.4466,N,00402.1957,W,1,08,1.4,78.6,M,51.1,M,,0000*71
$GPGSA,A,3,28,09,26,15,08,05,19,07,,,,,2.3,1.4,1.8*3E
$GPGSV,3,1,12,26,80,303,39,09,54,062,32,05,53,191,46,08,51,059,26*7F
$GPGSV,3,2,12,28,43,111,42,15,40,284,32,21,18,304,,07,17,057,30*73
$GPGSV,3,3,12,24,05,234,,18,05,318,,19,05,034,21,10,05,153,28*7A
$GPRMC,151304.000,A,5225.4466,N,00402.1957,W,31.53,209.29,210214,,*2F
$GPGGA,151305.000,5225.4391,N,00402.2020,W,1,08,1.4,79.2,M,51.1,M,,0000*70
$GPGSA,A,3,28,09,26,15,08,05,19,07,,,,,2.3,1.4,1.8*3E
$GPRMC,151305.000,A,5225.4391,N,00402.2020,W,29.59,204.97,210214,,*20
$GPGGA,151306.000,5225.4316,N,00402.2064,W,1,08,1.4,80.0,M,51.1,M,,0000*78
$GPGSA,A,3,28,09,26,15,08,05,19,07,,,,,2.3,1.4,1.8*3E
$GPRMC,151306.000,A,5225.4316,N,00402.2064,W,27.81,196.48,210214,,*2D
$GPGGA,151307.000,5225.4242,N,00402.2091,W,1,08,1.4,80.3,M,51.1,M,,0000*70
$GPGSA,A,3,28,09,26,15,08,05,19,07,,,,,2.3,1.4,1.8*3E
$GPRMC,151307.000,A,5225.4242,N,00402.2091,W,26.47,189.27,210214,,*2A
$GPGGA,151308.000,5225.4170,N,00402.2103,W,1,09,1.1,81.5,M,51.1,M,,0000*74
$GPGSA,A,3,28,09,26,24,15,08,05,19,07,,,,1.6,1.1,1.1*32
$GPRMC,151308.000,A,5225.4170,N,00402.2103,W,25.17,186.05,210214,,*24
$GPGGA,151309.000,5225.4099,N,00402.2107,W,1,06,1.7,81.6,M,51.1,M,,0000*7D
$GPGSA,A,3,09,26,24,15,08,05,,,,,,,2.6,1.7,2.0*30
$GPGSV,3,1,12,26,80,303,26,09,54,062,20,05,53,191,33,08,51,059,21*77
$GPGSV,3,2,12,28,43,111,21,15,40,284,24,21,18,304,,07,17,057,10*73
$GPGSV,3,3,12,24,05,234,19,18,05,318,,19,05,034,10,10,05,153,*7A
$GPRMC,151309.000,A,5225.4099,N,00402.2107,W,25.17,183.07,210214,,*20
$GPGGA,151310.000,5225.4028,N,00402.2102,W,1,06,1.6,82.2,M,51.1,M,,0000*7C
$GPGSA,A,3,28,09,26,24,15,05,,,,,,,2.6,1.6,2.1*32
$GPRMC,151310.000,A,5225.4028,N,00402.2102,W,24.70,181.93,210214,,*28
$GPGGA,151311.000,5225.3961,N,00402.2104,W,1,07,1.5,82.7,M,51.1,M,,0000*7F
$GPGSA,A,3,28,09,26,24,15,08,05,,,,,,2.4,1.5,2.0*3A
$GPRMC,151311.000,A,5225.3961,N,00402.2104,W,22.76,181.62,210214,,*22
$GPGGA,151312.000,5225.3899,N,00402.2110,W,1,07,1.5,83.5,M,51.1,M,,0000*7C
$GPGSA,A,3,28,09,26,24,15,08,05,,,,,,2.4,1.5,2.0*3A
$GPRMC,151312.000,A,5225.3899,N,00402.2110,W,21.59,181.46,210214,,*2A
$GPGGA,151313.000,5225.3837,N,00402.2101,W,1,06,1.5,83.5,M,51.1,M,,0000*78
$GPGSA,A,3,28,09,26,15,08,05,,,,,,,4.2,1.5,3.9*34
$GPRMC,151313.000,A,5225.3837,N,00402.2101,W,20.69,181.25,210214,,*28
$GPGGA,151314.000,5225.3778,N,00402.2096,W,1,06,1.5,84.4,M,51.1,M,,0000*72
$GPGSA,A,3,28,09,26,15,08,05,,,,,,,4.2,1.5,3.9*34
$GPGSV,3,1,12,26,80,303,23,09,54,062,15,05,53,191,20,08,51,059,14*70
$GPGSV,3,2,12,28,43,111,15,15,40,284,22,21,18,304,,07,17,057,*73
$GPGSV,3,3,12,24,05,234,,18,05,318,,19,05,034,,10,05,153,*73
$GPRMC,151314.000,A,5225.3778,N,00402.2096,W,20.08,181.21,210214,,*27
$GPGGA,151315.000,5225.3728,N,00402.2106,W,1,06,1.5,83.6,M,51.1,M,,0000*7B
$GPGSA,A,3,28,09,26,15,08,05,,,,,,,4.2,1.5,3.9*34
$GPRMC,151315.000,A,5225.3728,N,00402.2106,W,18.38,183.18,210214,,*2B
$GPGGA,151316.000,5225.3679,N,00402.2123,W,1,06,1.5,82.5,M,51.1,M,,0000*78
$GPGSA,A,3,28,09,26,15,08,05,,,,,,,4.2,1.5,3.9*34
$GPRMC,151316.000,A,5225.3679,N,00402.2123,W,18.39,186.92,210214,,*2C
$GPGGA,151317.000,5225.3622,N,00402.2141,W,1,05,1.8,81.9,M,51.1,M,,0000*72
$GPGSA,A,3,09,26,15,08,05,,,,,,,,4.8,1.8,4.5*32
$GPRMC,151317.000,A,5225.3622,N,00402.2141,W,18.99,187.54,210214,,*26
$GPGGA,151318.000,5225.3568,N,00402.2173,W,1,05,1.6,80.7,M,51.1,M,,0000*70
$GPGSA,A,3,28,26,15,08,05,,,,,,,,4.2,1.6,3.9*3E
$GPRMC,151318.000,A,5225.3568,N,00402.2173,W,18.81,192.22,210214,,*29
$GPGGA,151319.000,5225.3515,N,00402.2220,W,1,06,1.5,80.7,M,51.1,M,,0000*7E
$GPGSA,A,3,28,09,26,15,08,05,,,,,,,4.2,1.5,3.9*34
$GPGSV,3,1,12,26,80,303,24,09,54,062,14,05,53,191,21,08,51,059,14*77
$GPGSV,3,2,12,28,43,111,15,15,40,284,23,21,18,304,,07,17,057,*72
$GPGSV,3,3,12,24,05,234,,18,05,318,,19,05,034,,10,05,153,*73
$GPRMC,151319.000,A,5225.3515,N,00402.2220,W,19.00,199.42,210214,,*22
$GPGGA,151320.000,5225.3466,N,00402.2273,W,1,05,1.6,79.7,M,51.1,M,,0000*71
$GPGSA,A,3,28,26,15,08,05,,,,,,,,4.2,1.6,3.9*3E
$GPRMC,151320.000,A,5225.3466,N,00402.2273,W,20.27,205.24,210214,,*22
$GPGGA,151321.000,5225.3413,N,00402.2326,W,1,05,1.6,77.9,M,51.1,M,,0000*73
$GPGSA,A,3,28,26,15,08,05,,,,,,,,4.2,1.6,3.9*3E
$GPRMC,151321.000,A,5225.3413,N,00402.2326,W,21.35,207.25,210214,,*21
$GPGGA,151322.000,5225.3367,N,00402.2400,W,1,04,1.9,73.9,M,51.1,M,,0000*7D
$GPGSA,A,3,26,15,08,05,,,,,,,,,4.9,1.9,4.5*3B
$GPRMC,151322.000,A,5225.3367,N,00402.2400,W,20.93,211.30,210214,,*2B
$GPGGA,151323.000,5225.3320,N,00402.2466,W,1,04,1.9,70.6,M,51.1,M,,0000*73
$GPGSA,A,3,26,15,08,05,,,,,,,,,4.9,1.9,4.5*3B
$GPRMC,151323.000,A,5225.3320,N,00402.2466,W,21.53,209.94,210214,,*23
$GPGGA,151324.000,5225.3255,N,00402.2508,W,1,03,3.4,70.1,M,51.1,M,,0000*71
$GPGSA,A,2,26,15,05,,,,,,,,,,3.5,3.4,1.0*36
$GPGSV,3,1,12,26,80,303,26,09,54,062,16,05,53,191,21,08,51,059,*72
$GPGSV,3,2,12,28,43,111,13,15,40,284,23,21,18,304,,07,17,057,*74
$GPGSV,3,3,12,24,05,234,,18,05,318,,19,05,034,,10,05,153,*73
$GPRMC,151324.000,A,5225.3255,N,00402.2508,W,22.99,205.92,210214,,*21
$GPGGA,151325.000,5225.3203,N,00402.2563,W,1,03,3.4,68.3,M,51.1,M,,0000*75
$GPGSA,A,2,26,15,05,,,,,,,,,,3.5,3.4,1.0*36
$GPRMC,151325.000,A,5225.3203,N,00402.2563,W,22.96,205.39,210214,,*20
$GPGGA,151326.000,5225.3156,N,00402.2623,W,1,03,3.4,65.7,M,51.1,M,,0000*7B
$GPGSA,A,2,26,15,05,,,,,,,,,,3.5,3.4,1.0*36
$GPRMC,151326.000,A,5225.3156,N,00402.2623,W,22.67,204.79,210214,,*2C
$GPGGA,151327.000,5225.3093,N,00402.2661,W,1,04,1.9,62.5,M,51.1,M,,0000*79
$GPGSA,A,3,09,26,15,05,,,,,,,,,5.2,1.9,4.8*3D
$GPRMC,151327.000,A,5225.3093,N,00402.2661,W,23.06,200.08,210214,,*27
$GPGGA,151328.000,5225.3027,N,00402.2686,W,1,03,3.4,61.4,M,51.1,M,,0000*7A
$GPGSA,A,2,26,15,05,,,,,,,,,,3.5,3.4,1.0*36
$GPRMC,151328.000,A,5225.3027,N,00402.2686,W,22.64,194.98,210214,,*2C
$GPGGA,151329.000,5225.2967,N,00402.2731,W,1,04,1.9,61.0,M,51.1,M,,0000*76
$GPGSA,A,3,09,26,15,05,,,,,,,,,5.2,1.9,4.8*3D
$GPGSV,3,1,12,26,80,303,26,09,54,062,15,05,53,191,21,08,51,059,*71
$GPGSV,3,2,12,28,43,111,,15,40,284,23,21,18,304,,07,17,057,*76
$GPGSV,3,3,12,24,05,234,,18,05,318,,19,05,034,,10,05,153,*73
$GPRMC,151329.000,A,5225.2967,N,00402.2731,W,22.55,193.95,210214,,*24
$GPGGA,151330.000,5225.2911,N,00402.2764,W,1,03,3.4,60.7,M,51.1,M,,0000*71
$GPGSA,A,2,26,15,05,,,,,,,,,,3.5,3.4,1.0*36
$GPRMC,151330.000,A,5225.2911,N,00402.2764,W,21.92,197.59,210214,,*21
$GPGGA,151331.000,5225.2841,N,00402.2782,W,1,03,3.4,61.3,M,51.1,M,,0000*79
$GPGSA,A,2,26,15,05,,,,,,,,,,3.5,3.4,1.0*36
$GPRMC,151331.000,A,5225.2841,N,00402.2782,W,22.52,198.79,210214,,*2E
$GPGGA,151332.000,5225.2771,N,00402.2798,W,1,03,3.4,62.5,M,51.1,M,,0000*78
$GPGSA,A,2,26,15,05,,,,,,,,,,3.5,3.4,1.0*36
$GPRMC,151332.000,A,5225.2771,N,00402.2798,W,22.64,198.65,210214,,*22
$GPGGA,151333.000,5225.2698,N,00402.2830,W,1,03,3.4,61.7,M,51.1,M,,0000*73
$GPGSA,A,2,26,15,05,,,,,,,,,,3.5,3.4,1.0*36
$GPRMC,151333.000,A,5225.2698,N,00402.2830,W,24.70,199.90,210214,,*20
$GPGGA,151334.000,5225.2626,N,00402.2901,W,1,04,1.9,60.8,M,51.1,M,,0000*74
$GPGSA,A,3,09,26,15,05,,,,,,,,,5.2,1.9,4.8*3D
$GPGSV,3,1,12,26,80,303,26,09,54,062,15,05,53,191,21,08,51,059,*71
$GPGSV,3,2,12,28,43,111,,15,40,284,24,21,18,304,,07,17,057,*71
$GPGSV,3,3,12,24,05,234,,18,05,318,,19,05,034,,10,05,153,*73
$GPRMC,151334.000,A,5225.2626,N,00402.2901,W,24.90,205.44,210214,,*20
$GPGGA,151335.000,5225.2567,N,00402.2965,W,1,04,1.9,60.4,M,51.1,M,,0000*7D
$GPGSA,A,3,09,26,15,05,,,,,,,,,5.2,1.9,4.8*3D
$GPRMC,151335.000,A,5225.2567,N,00402.2965,W,24.17,210.16,210214,,*29
$GPGGA,151336.000,5225.2508,N,00402.3033,W,1,04,1.9,59.5,M,51.1,M,,0000*77
$GPGSA,A,3,09,26,15,05,,,,,,,,,5.2,1.9,4.8*3D
$GPRMC,151336.000,A,5225.2508,N,00402.3033,W,23.68,213.10,210214,,*22
$GPGGA,151337.000,5225.2457,N,00402.3109,W,1,05,1.7,56.9,M,51.1,M,,0000*79
$GPGSA,A,3,28,09,26,15,05,,,,,,,,4.3,1.7,3.9*3F
$GPRMC,151337.000,A,5225.2457,N,00402.3109,W,23.36,216.11,210214,,*2F
$GPGGA,151338.000,5225.2412,N,00402.3169,W,1,03,1.9,56.3,M,51.1,M,,0000*73
$GPGSA,A,2,09,15,05,,,,,,,,,,2.1,1.9,1.0*31
$GPRMC,151338.000,A,5225.2412,N,00402.3169,W,22.69,213.62,210214,,*2D
$GPGGA,151339.000,5225.2368,N,00402.3240,W,1,05,1.7,55.8,M,51.1,M,,0000*70
$GPGSA,A,3,28,09,26,15,05,,,,,,,,4.3,1.7,3.9*3F
$GPGSV,3,1,12,26,80,303,18,09,54,062,17,05,53,191,21,08,51,059,*7E
$GPGSV,3,2,12,28,43,111,16,15,40,284,20,21,18,304,,07,17,057,*72
$GPGSV,3,3,12,24,05,234,,18,05,318,,19,05,034,,10,05,153,*73
$GPRMC,151339.000,A,5225.2368,N,00402.3240,W,22.06,215.42,210214,,*23
$GPGGA,151340.000,5225.2323,N,00402.3305,W,1,05,1.7,54.1,M,51.1,M,,0000*79
$GPGSA,A,3,28,09,26,15,05,,,,,,,,4.3,1.7,3.9*3F
$GPRMC,151340.000,A,5225.2323,N,00402.3305,W,20.92,216.62,210214,,*2C
$GPGGA,151341.000,5225.2284,N,00402.3358,W,1,05,1.7,52.1,M,51.1,M,,0000*7A
$GPGSA,A,3,28,09,26,15,05,,,,,,,,4.3,1.7,3.9*3F
$GPRMC,151341.000,A,5225.2284,N,00402.3358,W,20.03,216.26,210214,,*21
$GPGGA,151342.000,5225.2246,N,00402.3410,W,1,05,1.7,49.3,M,51.1,M,,0000*74
$GPGSA,A,3,28,09,26,15,05,,,,,,,,4.3,1.7,3.9*3F
$GPRMC,151342.000,A,5225.2246,N,00402.3410,W,19.25,213.81,210214,,*21
$GPGGA,151343.000,5225.2203,N,00402.3446,W,1,05,1.7,45.5,M,51.1,M,,0000*7D
$GPGSA,A,3,28,09,26,15,05,,,,,,,,4.3,1.7,3.9*3F
$GPRMC,151343.000,A,5225.2203,N,00402.3446,W,18.42,208.78,210214,,*2E
$GPGGA,151344.000,5225.2159,N,00402.3475,W,1,05,1.7,42.4,M,51.1,M,,0000*70
$GPGSA,A,3,28,09,26,15,05,,,,,,,,4.3,1.7,3.9*3F
$GPGSV,3,1,12,26,80,303,20,09,54,062,17,05,53,191,21,08,51,059,*75
$GPGSV,3,2,12,28,43,111,15,15,40,284,19,21,18,304,,07,17,057,*7B
$GPGSV,3,3,12,24,05,234,,18,05,318,,19,05,034,,10,05,153,*73
$GPRMC,151344.000,A,5225.2159,N,00402.3475,W,18.20,205.09,210214,,*2A
$GPGGA,151345.000,5225.2109,N,00402.3520,W,1,04,1.9,38.7,M,51.1,M,,0000*74
$GPGSA,A,3,09,26,15,05,,,,,,,,,5.1,1.9,4.8*3E
$GPRMC,151345.000,A,5225.2109,N,00402.3520,W,19.07,204.32,210214,,*22
$GPGGA,151346.000,5225.2059,N,00402.3571,W,1,05,1.7,38.7,M,51.1,M,,0000*78
$GPGSA,A,3,28,09,26,15,05,,,,,,,,4.3,1.7,3.9*3F
$GPRMC,151346.000,A,5225.2059,N,00402.3571,W,20.65,206.06,210214,,*2A
$GPGGA,151347.000,5225.2008,N,00402.3624,W,1,05,1.7,42.4,M,51.1,M,,0000*70
$GPGSA,A,3,28,09,26,15,05,,,,,,,,4.3,1.7,3.9*3F
$GPRMC,151347.000,A,5225.2008,N,00402.3624,W,19.43,206.08,210214,,*2C
$GPGGA,151348.000,5225.1960,N,00402.3684,W,1,05,1.7,46.2,M,51.1,M,,0000*73
$GPGSA,A,3,28,09,26,15,05,,,,,,,,4.3,1.7,3.9*3F
$GPRMC,151348.000,A,5225.1960,N,00402.3684,W,19.25,211.91,210214,,*2B
$GPGGA,151349.000,5225.1916,N,00402.3746,W,1,08,1.4,50.8,M,51.1,M,,0000*7F
$GPGSA,A,3,28,09,26,07,15,19,05,08,,,,,2.3,1.4,1.8*3E
$GPGSV,3,1,12,26,80,303,40,09,54,062,32,05,53,191,44,08,51,059,29*7C
$GPGSV,3,2,12,28,43,111,37,15,40,284,32,21,18,304,,07,17,057,26*76
$GPGSV,3,3,12,24,05,234,,18,05,318,,19,05,034,23,10,05,153,*72
$GPRMC,151349.000,A,5225.1916,N,00402.3746,W,19.32,214.31,210214,,*2D
$GPGGA,151350.000,5225.1871,N,00402.3802,W,1,08,1.4,56.4,M,51.1,M,,0000*72
$GPGSA,A,3,28,09,26,07,15,19,05,08,,,,,2.3,1.4,1.8*3E
$GPRMC,151350.000,A,5225.1871,N,00402.3802,W,18.57,213.22,210214,,*2D
$GPGGA,151351.000,5225.1825,N,00402.3854,W,1,08,1.4,61.0,M,51.1,M,,0000*71
$GPGSA,A,3,28,09,26,07,15,19,05,08,,,,,2.3,1.4,1.8*3E
$GPRMC,151351.000,A,5225.1825,N,00402.3854,W,18.77,211.30,210214,,*2D
$GPGGA,151352.000,5225.1778,N,00402.3904,W,1,08,1.4,64.5,M,51.1,M,,0000*71
$GPGSA,A,3,28,09,26,07,15,19,05,08,,,,,2.3,1.4,1.8*3E
$GPRMC,151352.000,A,5225.1778,N,00402.3904,W,19.59,212.05,210214,,*25
$GPGGA,151353.000,5225.1730,N,00402.3957,W,1,08,1.4,67.1,M,51.1,M,,0000*7D
$GPGSA,A,3,28,09,26,07,15,19,05,08,,,,,2.3,1.4,1.8*3E
$GPRMC,151353.000,A,5225.1730,N,00402.3957,W,20.71,212.69,210214,,*24
$GPGGA,151354.000,5225.1679,N,00402.4012,W,1,08,1.4,69.5,M,51.1,M,,0000*73
$GPGSA,A,3,28,09,26,07,15,19,05,08,,,,,2.3,1.4,1.8*3E
$GPGSV,3,1,12,26,80,303,40,09,54,062,33,05,53,191,46,08,51,059,18*7D
$GPGSV,3,2,12,28,43,111,42,15,40,284,40,21,18,304,,07,17,057,26*71
$GPGSV,3,3,12,24,05,234,,18,05,318,,19,05,034,22,10,05,153,*73
$GPRMC,151354.000,A,5225.1679,N,00402.4012,W,21.72,212.79,210214,,*23
$GPGGA,151355.000,5225.1626,N,00402.4068,W,1,08,1.4,71.6,M,51.1,M,,0000*7F
$GPGSA,A,3,28,09,26,07,15,19,05,08,,,,,2.3,1.4,1.8*3E
$GPRMC,151355.000,A,5225.1626,N,00402.4068,W,22.36,211.61,210214,,*2C
$GPGGA,151356.000,5225.1570,N,00402.4123,W,1,09,1.3,73.7,M,51.1,M,,0000*77
$GPGSA,A,3,28,09,26,07,15,19,05,08,21,,,,2.1,1.3,1.7*37
$GPRMC,151356.000,A,5225.1570,N,00402.4123,W,23.21,209.89,210214,,*29
$GPGGA,151357.000,5225.1512,N,00402.4176,W,1,09,1.3,75.6,M,51.1,M,,0000*75
$GPGSA,A,3,28,09,26,07,15,19,05,08,21,,,,2.1,1.3,1.7*37
$GPRMC,151357.000,A,5225.1512,N,00402.4176,W,23.53,208.67,210214,,*28
$GPGGA,151358.000,5225.1453,N,00402.4229,W,1,09,1.3,77.4,M,51.1,M,,0000*77
$GPGSA,A,3,28,09,26,07,15,19,05,08,21,,,,2.1,1.3,1.7*37
$GPRMC,151358.000,A,5225.1453,N,00402.4229,W,23.85,207.50,210214,,*2A
$GPGGA,151359.000,5225.1393,N,00402.4279,W,1,09,1.3,79.1,M,51.1,M,,0000*73
$GPGSA,A,3,28,09,26,07,15,19,05,08,21,,,,2.1,1.3,1.7*37
$GPGSV,3,1,12,26,80,303,39,09,54,062,33,05,53,191,46,08,51,059,32*7B
$GPGSV,3,2,12,28,43,111,43,15,40,284,39,21,18,304,24,07,17,057,34*7B
$GPGSV,3,3,12,24,05,234,,18,05,318,19,19,05,034,23,10,05,153,*7A
$GPRMC,151359.000,A,5225.1393,N,00402.4279,W,23.94,206.51,210214,,*25
$GPGGA,151400.000,5225.1333,N,00402.4327,W,1,09,1.3,80.8,M,51.1,M,,0000*77
$GPGSA,A,3,28,09,26,07,15,19,05,08,21,,,,2.1,1.3,1.7*37
$GPRMC,151400.000,A,5225.1333,N,00402.4327,W,23.62,205.36,210214,,*25
$GPGGA,151401.000,5225.1273,N,00402.4373,W,1,09,1.3,82.5,M,51.1,M,,0000*7D
$GPGSA,A,3,28,09,26,07,15,19,05,08,21,,,,2.1,1.3,1.7*37
$GPRMC,151401.000,A,5225.1273,N,00402.4373,W,23.51,204.26,210214,,*20
$GPGGA,151402.000,5225.1212,N,00402.4416,W,1,09,1.3,84.2,M,51.1,M,,0000*7C
$GPGSA,A,3,28,09,26,07,15,19,05,08,21,,,,2.1,1.3,1.7*37
$GPRMC,151402.000,A,5225.1212,N,00402.4416,W,23.55,202.49,210214,,*2B
$GPGGA,151403.000,5225.1151,N,00402.4456,W,1,09,1.3,85.9,M,51.1,M,,0000*77
$GPGSA,A,3,28,09,26,07,15,19,05,08,21,,,,2.1,1.3,1.7*37
$GPRMC,151403.000,A,5225.1151,N,00402.4456,W,23.74,200.96,210214,,*29
$GPGGA,151404.000,5225.1089,N,00402.4496,W,1,09,1.3,87.5,M,51.1,M,,0000*76
$GPGSA,A,3,28,09,26,07,15,19,05,08,21,,,,2.1,1.3,1.7*37
$GPGSV,3,1,12,26,80,303,38,09,54,062,34,05,53,191,46,08,51,059,31*7E
$GPGSV,3,2,12,28,43,111,43,15,40,284,39,21,18,304,25,07,17,057,26*79
$GPGSV,3,3,12,24,05,234,,18,05,318,24,19,05,034,23,10,05,153,*74
$GPRMC,151404.000,A,5225.1089,N,00402.4496,W,23.85,201.03,210214,,*25
$GPGGA,151405.000,5225.1026,N,00402.4537,W,1,09,1.3,89.1,M,51.1,M,,0000*72
$GPGSA,A,3,28,09,26,07,15,19,05,08,21,,,,2.1,1.3,1.7*37
$GPRMC,151405.000,A,5225.1026,N,00402.4537,W,24.43,202.55,210214,,*26
$GPGGA,151406.000,5225.0963,N,00402.4582,W,1,09,1.3,90.7,M,51.1,M,,0000*78
$GPGSA,A,3,28,09,26,07,15,19,05,08,21,,,,2.1,1.3,1.7*37
$GPRMC,151406.000,A,5225.0963,N,00402.4582,W,24.53,204.70,210214,,*22
$GPGGA,151407.000,5225.0901,N,00402.4631,W,1,09,1.3,92.5,M,51.1,M,,0000*76
$GPGSA,A,3,28,09,26,07,15,19,05,08,21,,,,2.1,1.3,1.7*37
$GPRMC,151407.000,A,5225.0901,N,00402.4631,W,24.61,205.79,210214,,*25
$GPGGA,151408.000,5225.0842,N,00402.4680,W,1,09,1.3,93.5,M,51.1,M,,0000*74
$GPGSA,A,3,28,09,26,07,15,19,05,08,21,,,,2.1,1.3,1.7*37
$GPRMC,151408.000,A,5225.0842,N,00402.4680,W,24.04,207.47,210214,,*2A
$GPGGA,151409.000,5225.0786,N,00402.4730,W,1,08,1.4,94.6,M,51.1,M,,0000*7A
$GPGSA,A,3,28,09,26,07,15,19,05,08,,,,,2.3,1.4,1.8*3E
$GPGSV,3,1,12,26,80,303,39,09,54,062,35,05,53,191,45,08,51,059,32*7E
$GPGSV,3,2,12,28,43,111,43,15,40,284,30,21,18,304,22,07,17,057,33*73
$GPGSV,3,3,12,24,05,234,,18,05,318,,19,05,034,25,10,05,153,17*72
$GPRMC,151409.000,A,5225.0786,N,00402.4730,W,23.48,207.87,210214,,*25
$GPGGA,151410.000,5225.0730,N,00402.4779,W,1,08,1.4,95.9,M,51.1,M,,0000*7C
$GPGSA,A,3,28,09,26,07,15,19,05,08,,,,,2.3,1.4,1.8*3E
$GPRMC,151410.000,A,5225.0730,N,00402.4779,W,23.16,207.63,210214,,*2C
$GPGGA,151411.000,5225.0675,N,00402.4827,W,1,08,1.4,97.2,M,51.1,M,,0000*70
$GPGSA,A,3,28,09,26,07,15,19,05,08,,,,,2.3,1.4,1.8*3E
$GPRMC,151411.000,A,5225.0675,N,00402.4827,W,22.87,206.81,210214,,*2D
$GPGGA,151412.000,5225.0619,N,00402.4869,W,1,08,1.4,99.4,M,51.1,M,,0000*7B
$GPGSA,A,3,28,09,26,07,15,19,05,08,,,,,2.3,1.4,1.8*3E
$GPRMC,151412.000,A,5225.0619,N,00402.4869,W,22.56,205.27,210214,,*2D
$GPGGA,151413.000,5225.0563,N,00402.4913,W,1,08,1.4,100.9,M,51.1,M,,0000*44
$GPGSA,A,3,28,09,26,07,15,19,05,08,,,,,2.3,1.4,1.8*3E
$GPRMC,151413.000,A,5225.0563,N,00402.4913,W,22.61,204.30,210214,,*2D
$GPGGA,151414.000,5225.0505,N,00402.4954,W,1,08,1.4,102.4,M,51.1,M,,0000*4F
$GPGSA,A,3,28,09,26,07,15,19,05,08,,,,,2.3,1.4,1.8*3E
$GPGSV,3,1,12,26,80,303,40,09,54,062,36,05,53,191,45,08,51,059,33*72
$GPGSV,3,2,12,28,43,111,43,15,40,284,32,21,18,304,,07,17,057,28*7B
$GPGSV,3,3,12,24,05,234,,18,05,318,,19,05,034,28,10,05,153,19*71
$GPRMC,151414.000,A,5225.0505,N,00402.4954,W,22.57,203.15,210214,,*2C
$GPGGA,151415.000,5225.0447,N,00402.4992,W,1,08,1.4,104.1,M,51.1,M,,0000*40
$GPGSA,A,3,28,09,26,07,15,19,05,08,,,,,2.3,1.4,1.8*3E
$GPRMC,151415.000,A,5225.0447,N,00402.4992,W,22.76,201.76,210214,,*24
$GPGGA,151416.000,5225.0388,N,00402.5031,W,1,08,1.4,105.4,M,51.1,M,,0000*42
$GPGSA,A,3,28,09,26,07,15,19,05,08,,,,,2.3,1.4,1.8*3E
$GPRMC,151416.000,A,5225.0388,N,00402.5031,W,23.13,201.44,210214,,*21
$GPGGA,151417.000,5225.0328,N,00402.5070,W,1,08,1.4,106.3,M,51.1,M,,0000*48
$GPGSA,A,3,28,09,26,07,15,19,05,08,,,,,2.3,1.4,1.8*3E
$GPRMC,151417.000,A,5225.0328,N,00402.5070,W,23.24,201.35,210214,,*2D
$GPGGA,151418.000,5225.0268,N,00402.5106,W,1,08,1.4,107.9,M,51.1,M,,0000*49
$GPGSA,A,3,28,09,26,07,15,19,05,08,,,,,2.3,1.4,1.8*3E
$GPRMC,151418.000,A,5225.0268,N,00402.5106,W,23.28,199.97,210214,,*21
$GPGGA,151419.000,5225.0208,N,00402.5140,W,1,07,1.9,108.7,M,51.1,M,,0000*4F
$GPGSA,A,3,28,09,26,07,19,05,08,,,,,,2.6,1.9,1.9*33
$GPGSV,3,1,12,26,81,308,39,09,53,062,36,05,52,190,45,08,49,059,33*78
$GPGSV,3,2,12,28,44,109,43,15,41,285,,21,18,303,,07,16,057,27*7D
$GPGSV,3,3,12,24,07,234,,18,06,318,,19,05,033,21,10,03,154,18*7E
$GPRMC,151419.000,A,5225.0208,N,00402.5140,W,22.66,197.61,210214,,*28
$GPGGA,151420.000,5225.0148,N,00402.5168,W,1,08,1.4,109.9,M,51.1,M,,0000*45
$GPGSA,A,3,28,09,26,07,15,19,05,08,,,,,2.3,1.4,1.8*3E
$GPRMC,151420.000,A,5225.0148,N,00402.5168,W,21.84,194.12,210214,,*27
$GPGGA,151421.000,5225.0089,N,00402.5183,W,1,08,1.4,111.6,M,51.1,M,,0000*4B
$GPGSA,A,3,28,09,26,07,15,19,05,08,,,,,2.3,1.4,1.8*3E
$GPRMC,151421.000,A,5225.0089,N,00402.5183,W,21.35,185.99,210214,,*26
$GPGGA,151422.000,5225.0030,N,00402.5179,W,1,08,1.4,113.7,M,51.1,M,,0000*4C
$GPGSA,A,3,28,09,26,07,15,19,05,08,,,,,2.3,1.4,1.8*3E
$GPRMC,151422.000,A,5225.0030,N,00402.5179,W,21.22,173.93,210214,,*27
$GPGGA,151423.000,5224.9972,N,00402.5152,W,1,08,1.4,115.5,M,51.1,M,,0000*47
$GPGSA,A,3,28,09,26,07,15,19,05,08,,,,,2.3,1.4,1.8*3E
$GPRMC,151423.000,A,5224.9972,N,00402.5152,W,21.21,159.99,210214,,*29
$GPGGA,151424.000,5224.9918,N,00402.5102,W,1,09,1.2,116.3,M,51.1,M,,0000*4B
$GPGSA,A,3,28,09,26,07,15,19,05,08,24,,,,1.6,1.2,1.1*31
$GPGSV,3,1,12,26,81,308,39,09,53,062,42,05,52,190,37,08,49,059,41*7B
$GPGSV,3,2,12,28,44,109,42,15,41,285,37,21,18,303,,07,16,057,35*7B
$GPGSV,3,3,12,24,07,234,25,18,06,318,23,19,05,033,31,10,03,154,17*76
$GPRMC,151424.000,A,5224.9918,N,00402.5102,W,22.09,148.11,210214,,*2E
$GPGGA,151425.000,5224.9867,N,00402.5038,W,1,09,1.2,117.2,M,51.1,M,,0000*4B
$GPGSA,A,3,28,09,26,07,15,19,05,08,24,,,,1.6,1.2,1.1*31
$GPRMC,151425.000,A,5224.9867,N,00402.5038,W,22.71,143.03,210214,,*29
$GPGGA,151426.000,5224.9818,N,00402.4970,W,1,10,1.0,118.5,M,51.1,M,,0000*46
$GPGSA,A,3,28,09,26,07,15,19,05,08,21,24,,,1.5,1.0,1.1*33
$GPRMC,151426.000,A,5224.9818,N,00402.4970,W,22.50,142.82,210214,,*2D
$GPGGA,151427.000,5224.9769,N,00402.4907,W,1,09,1.3,119.6,M,51.1,M,,0000*47
$GPGSA,A,3,28,09,26,07,15,19,05,08,21,,,,2.1,1.3,1.7*37
$GPRMC,151427.000,A,5224.9769,N,00402.4907,W,21.75,144.19,210214,,*25
$GPGGA,151428.000,5224.9723,N,00402.4851,W,1,09,1.3,120.9,M,51.1,M,,0000*41
$GPGSA,A,3,28,09,26,07,15,19,05,08,21,,,,2.1,1.3,1.7*37
$GPRMC,151428.000,A,5224.9723,N,00402.4851,W,19.93,146.39,210214,,*25
$GPGGA,151429.000,5224.9681,N,00402.4802,W,1,09,1.3,121.9,M,51.1,M,,0000*4E
